"場所の名前","カテゴリ","区名","所在地","TEL","避難可能時間","災害対策基本法に基づく指定","避難場所の対象とする災害","経度","緯度","分類"
"港大阪祭典","防災関連施設 - 津波避難ビル・水害時避難ビル","港区","福崎1-1-62","","営業日の8:00～18:00","指定緊急避難場所","津波・洪水","135.458020996566","34.6598460052099","津波避難ビル・水害時避難ビル"
"市営鶴見住宅２号館","防災関連施設 - 津波避難ビル・水害時避難ビル","鶴見区","鶴見２丁目８","","24時間","指定緊急避難場所","津波・洪水","135.562903003915","34.698269999438","津波避難ビル・水害時避難ビル"
"市営鶴見住宅8号館","防災関連施設 - 津波避難ビル・水害時避難ビル","鶴見区","鶴見1丁目2","","24時間","指定緊急避難場所","津波・洪水","135.560114309669","34.6977003895026","津波避難ビル・水害時避難ビル"
"市営鶴見住宅4号館","防災関連施設 - 津波避難ビル・水害時避難ビル","鶴見区","鶴見２丁目７","","24時間","指定緊急避難場所","津波・洪水","135.562988997712","34.6990170007568","津波避難ビル・水害時避難ビル"
"市営鶴見住宅3号館","防災関連施設 - 津波避難ビル・水害時避難ビル","鶴見区","鶴見２丁目７","","24時間","指定緊急避難場所","津波・洪水","135.561858186537","34.6989900059422","津波避難ビル・水害時避難ビル"
"市営鶴見住宅1号館","防災関連施設 - 津波避難ビル・水害時避難ビル","鶴見区","鶴見２丁目８","","24時間","指定緊急避難場所","津波・洪水","135.562035599735","34.6982641626304","津波避難ビル・水害時避難ビル"
"市営鴫野第2住宅2号館","防災関連施設 - 津波避難ビル・水害時避難ビル","城東区","城東区鴫野西３丁目６?B","","24時間","指定緊急避難場所","津波・洪水","135.543204996451","34.6939869983292","津波避難ビル・水害時避難ビル"
"市営鴫野第2住宅1号館","防災関連施設 - 津波避難ビル・水害時避難ビル","城東区","城東区鴫野西３丁目６?A","","24時間","指定緊急避難場所","津波・洪水","135.541054995282","34.6937420042406","津波避難ビル・水害時避難ビル"
"市営鴫野住宅5号館","防災関連施設 - 津波避難ビル・水害時避難ビル","城東区","鴫野西５-３","","24時間","指定緊急避難場所","津波・洪水","135.542515633108","34.6908696986277","津波避難ビル・水害時避難ビル"
"市営鴫野住宅4号館","防災関連施設 - 津波避難ビル・水害時避難ビル","城東区","鴫野西５-３","","24時間","指定緊急避難場所","津波・洪水","135.542579999695","34.6916010011299","津波避難ビル・水害時避難ビル"
"市営鴫野住宅3号館","防災関連施設 - 津波避難ビル・水害時避難ビル","城東区","鴫野西5-3","","24時間","指定緊急避難場所","津波・洪水","135.542852003755","34.6916420036458","津波避難ビル・水害時避難ビル"
"市営鴫野住宅2号館","防災関連施設 - 津波避難ビル・水害時避難ビル","城東区","鴫野西５-３","","24時間","指定緊急避難場所","津波・洪水","135.543667000822","34.6923480007337","津波避難ビル・水害時避難ビル"
"市営西宮原住宅1号館","防災関連施設 - 津波避難ビル・水害時避難ビル","淀川区","西宮原１丁目７","","24時間","指定緊急避難場所","津波・洪水","135.491099324061","34.7332694333091","津波避難ビル・水害時避難ビル"
"市営西喜連第5住宅7号館","防災関連施設 - 津波避難ビル・水害時避難ビル","平野区","喜連西４丁目４?4-7","","24時間","指定緊急避難場所","洪水","135.54417700161","34.6102969969165","津波避難ビル・水害時避難ビル"
"市営西喜連第5住宅6号館","防災関連施設 - 津波避難ビル・水害時避難ビル","平野区","喜連西４丁目５?6","","24時間","指定緊急避難場所","洪水","135.544528624744","34.61022789229","津波避難ビル・水害時避難ビル"
"市営茨田大宮第2住宅25号館","防災関連施設 - 津波避難ビル・水害時避難ビル","鶴見区","茨田大宮４丁目１５?25","","24時間","指定緊急避難場所","津波・洪水","135.596380869925","34.7114645866088","津波避難ビル・水害時避難ビル"
"市営南方住宅","防災関連施設 - 津波避難ビル・水害時避難ビル","東淀川区","東中島２丁目２１?１","","24時間","指定緊急避難場所","洪水","135.506356240049","34.7290829281235","津波避難ビル・水害時避難ビル"
"日本交通株式会社　弁天営業所","防災関連施設 - 津波避難ビル・水害時避難ビル","港区","磯路２-23-27","","営業日の8:00～18:00","指定緊急避難場所","津波・洪水","135.457062004166","34.6660650010636","津波避難ビル・水害時避難ビル"
"メゾンシルク","防災関連施設 - 津波避難ビル・水害時避難ビル","港区","磯路３-14-2","","土日祝を除く平日の9:00～17:00","指定緊急避難場所","津波・洪水","135.456940994647","34.6636060020812","津波避難ビル・水害時避難ビル"
"さざなみプラザ 第22号棟","防災関連施設 - 津波避難ビル・水害時避難ビル","北区","長柄東2-1-22","","平日9:00～17:00（土日祝除く）","指定緊急避難場所","津波・洪水","135.519758000816","34.7135259975817","津波避難ビル・水害時避難ビル"
"Grand Jet?（グランジュテ）","防災関連施設 - 津波避難ビル・水害時避難ビル","淀川区","木川西１-８-23","","24時間","指定緊急避難場所","津波・洪水","135.49077799656","34.7211079976605","津波避難ビル・水害時避難ビル"
"123鶴橋店","防災関連施設 - 津波避難ビル・水害時避難ビル","東成区","玉津３-12-３","","24時間（営業日に限る）","指定緊急避難場所","洪水","135.535034002975","34.6658889991948","津波避難ビル・水害時避難ビル"
"123緑橋店","防災関連施設 - 津波避難ビル・水害時避難ビル","東成区","東今里2-3-1","","8:30～23:30(営業時間中)","指定緊急避難場所","洪水","135.552349001371","34.6794259988966","津波避難ビル・水害時避難ビル"
"大阪市・八尾市・松原市環境施設組合　東淀工場","防災関連施設 - 津波避難ビル・水害時避難ビル","東淀川区","南江口3-16-6","","24時間","指定緊急避難場所","洪水","135.554358000688","34.7560930023828","津波避難ビル・水害時避難ビル"
"ベルコ大阪法宴会館","防災関連施設 - 津波避難ビル・水害時避難ビル","北区","本庄東1-1-50","","24時間","指定緊急避難場所","津波、洪水","135.510351997011","34.7114799985162","津波避難ビル・水害時避難ビル"
"株式会社眞鍋鉄工所","防災関連施設 - 津波避難ビル・水害時避難ビル","西淀川区","姫島5-7-28","","平日8時～16時","指定緊急避難場所","津波、洪水","135.45147500227","34.7029630000321","津波避難ビル・水害時避難ビル"
"ベルフィオーレ","防災関連施設 - 津波避難ビル・水害時避難ビル","西淀川区","柏里2-11-1","","24時間","指定緊急避難場所","津波、洪水","135.465961998862","34.7092040015244","津波避難ビル・水害時避難ビル"
"M’S TEMMA","防災関連施設 - 津波避難ビル・水害時避難ビル","北区","天満3-1-8","","土日祝及び年末年始、ＧＷ、お盆を除く22時から6時","指定緊急避難場所","津波、洪水","135.515391997859","34.6925499965642","津波避難ビル・水害時避難ビル"
"キコーナ市岡店","防災関連施設 - 津波避難ビル・水害時避難ビル","港区","市岡２丁目５?１０","","営業日10時～23時","指定緊急避難場所","津波、洪水","135.458616000298","34.6628369996229","津波避難ビル・水害時避難ビル"
"田辺三菱製薬株式会社オフィス棟","防災関連施設 - 津波避難ビル・水害時避難ビル","淀川区","加島３丁目１６?８９","","24時間","指定緊急避難場所","津波、洪水","135.449015004894","34.7314979980534","津波避難ビル・水害時避難ビル"
"市営南港中住宅42号館","防災関連施設 - 津波避難ビル・水害時避難ビル","住之江区","南港中５丁目３?４２","","24時間","指定緊急避難場所","津波、洪水","135.41967999473","34.6345280017397","津波避難ビル・水害時避難ビル"
"ライオンズマンション千鳥橋","防災関連施設 - 津波避難ビル・水害時避難ビル","此花区","伝法４－１?３","","24時間","指定緊急避難場所","津波、洪水","135.454153995892","34.6871630037935","津波避難ビル・水害時避難ビル"
"せいりょう姫島","防災関連施設 - 津波避難ビル・水害時避難ビル","西淀川区","姫島2－15－8","","24時間","指定緊急避難場所","津波、洪水","135.452662996737","34.7013930010555","津波避難ビル・水害時避難ビル"
"大阪私学会館","防災関連施設 - 津波避難ビル・水害時避難ビル","都島区","網島町６?２０","","月～金：9時～17時、土：9時～12時　","指定緊急避難場所","津波、洪水","135.524876997773","34.6935940031569","津波避難ビル・水害時避難ビル"
"シティハイツサルキ","防災関連施設 - 津波避難ビル・水害時避難ビル","北区","中崎西２丁目３?３６","","24時間","指定緊急避難場所","津波、洪水","135.50329700423","34.7062600006002","津波避難ビル・水害時避難ビル"
"学校法人大阪中華學校","防災関連施設 - 津波避難ビル・水害時避難ビル","浪速区","敷津東１丁目８?１３","","平日8：00～17：00","指定緊急避難場所","津波、洪水","135.498496001651","34.6581380039801","津波避難ビル・水害時避難ビル"
"大阪府立阪南高等学校","防災関連施設 - 津波避難ビル・水害時避難ビル","住吉区","庭井２丁目１８?８１","","24時間","指定緊急避難場所","津波、洪水","135.516385996665","34.5952340007755","津波避難ビル・水害時避難ビル"
"ほくとクリニック病院","防災関連施設 - 津波避難ビル・水害時避難ビル","大正区","三軒家西１丁目１８?７","","24時間","指定緊急避難場所","津波、洪水","135.477805004768","34.664901000789","津波避難ビル・水害時避難ビル"
"市営長吉六反北住宅2号館","防災関連施設 - 津波避難ビル・水害時避難ビル","平野区","長吉六反4-8-2","","24時間","指定緊急避難場所","洪水","135.585320996206","34.6082689977992","津波避難ビル・水害時避難ビル"
"市営長吉六反北住宅1号館","防災関連施設 - 津波避難ビル・水害時避難ビル","平野区","長吉六反4-8-1","","24時間","指定緊急避難場所","洪水","135.584951999808","34.6088380016334","津波避難ビル・水害時避難ビル"
"市営秀野西住宅１号館","防災関連施設 - 津波避難ビル・水害時避難ビル","此花区","酉島1-5","","24時間","指定緊急避難場所","津波、洪水","135.445120003244","34.6850199989812","津波避難ビル・水害時避難ビル"
"市営波除第2住宅8号館","防災関連施設 - 津波避難ビル・水害時避難ビル","港区","波除4-8","","24時間","指定緊急避難場所","津波、洪水","135.461764004967","34.6745819992873","津波避難ビル・水害時避難ビル"
"市営波除第2住宅7号館","防災関連施設 - 津波避難ビル・水害時避難ビル","港区","波除4-8","","24時間","指定緊急避難場所","津波、洪水","135.462281998153","34.6747489998054","津波避難ビル・水害時避難ビル"
"市営波除第2住宅6号館","防災関連施設 - 津波避難ビル・水害時避難ビル","港区","波除1-6-6","","24時間","指定緊急避難場所","津波、洪水","135.462032002265","34.675788002278","津波避難ビル・水害時避難ビル"
"市営波除第2住宅5号館","防災関連施設 - 津波避難ビル・水害時避難ビル","港区","波除1-2","","24時間","指定緊急避難場所","津波、洪水","135.463069004284","34.6756800031361","津波避難ビル・水害時避難ビル"
"市営波除第2住宅4号館","防災関連施設 - 津波避難ビル・水害時避難ビル","港区","波除1-6","","24時間","指定緊急避難場所","津波、洪水","135.462472994693","34.6754499981563","津波避難ビル・水害時避難ビル"
"市営波除第2住宅2号館","防災関連施設 - 津波避難ビル・水害時避難ビル","港区","波除4-7","","24時間","指定緊急避難場所","津波、洪水","135.462722998142","34.6742279976403","津波避難ビル・水害時避難ビル"
"市営波除第2住宅1号館","防災関連施設 - 津波避難ビル・水害時避難ビル","港区","波除4-5","","24時間","指定緊急避難場所","津波、洪水","135.46302100523","34.6737129991074","津波避難ビル・水害時避難ビル"
"市営池島住宅2号館","防災関連施設 - 津波避難ビル・水害時避難ビル","港区","池島3-1-2","","24時間","指定緊急避難場所","津波、洪水","135.449226997067","34.6556450031751","津波避難ビル・水害時避難ビル"
"市営東淡路住宅2号館","防災関連施設 - 津波避難ビル・水害時避難ビル","東淀川区","東淡路3-5-2","","24時間","指定緊急避難場所","洪水","135.520691998782","34.7359500001904","津波避難ビル・水害時避難ビル"
"市営東淡路住宅1号館","防災関連施設 - 津波避難ビル・水害時避難ビル","東淀川区","東淡路3-5-1","","24時間","指定緊急避難場所","洪水","135.520942996385","34.736004004939","津波避難ビル・水害時避難ビル"
"市営千鳥橋住宅１号館","防災関連施設 - 津波避難ビル・水害時避難ビル","此花区","伝法2-2-2","","24時間","指定緊急避難場所","津波、洪水","135.457825075762","34.687450310043","津波避難ビル・水害時避難ビル"
"ファミリープラザ朝潮橋","防災関連施設 - 津波避難ビル・水害時避難ビル","港区","三先2-20-1,2","","24時間","指定緊急避難場所","津波、洪水","135.453547003616","34.6573979991964","津波避難ビル・水害時避難ビル"
"パークコート","防災関連施設 - 津波避難ビル・水害時避難ビル","西成区","出城2-5-5","","24時間","指定緊急避難場所","津波、洪水","135.49119099607","34.6497070050294","津波避難ビル・水害時避難ビル"
"ダイヘン本社ビル","防災関連施設 - 津波避難ビル・水害時避難ビル","淀川区","田川2-1-11","","24時間","指定緊急避難場所","津波、洪水","135.473123004291","34.7201439971582","津波避難ビル・水害時避難ビル"
"福島リバーガーデン","防災関連施設 - 津波避難ビル・水害時避難ビル","福島区","吉野４-29-20","","24時間","指定緊急避難場所","津波、洪水","135.469793001964","34.6897090004822","津波避難ビル・水害時避難ビル"
"大阪府病院協会看護専門学校","防災関連施設 - 津波避難ビル・水害時避難ビル","浪速区","浪速西２丁目１３?９","","平日9:00～17:00","指定緊急避難場所","津波、洪水","135.485817996785","34.6563109966279","津波避難ビル・水害時避難ビル"
"サービス付き高齢者向け住宅　介護付き有料老人ホーム　北田辺輝きの郷","防災関連施設 - 津波避難ビル・水害時避難ビル","東住吉区","東住吉区北田辺１丁目９?９","","24時間","指定緊急避難場所","洪水","135.525504001832","34.6363590030859","津波避難ビル・水害時避難ビル"
"メンソーレやまのは","防災関連施設 - 津波避難ビル・水害時避難ビル","西淀川区","西淀川区姫島４丁目１５?３２","","24時間","指定緊急避難場所","津波、洪水","135.451571003666","34.7043779984831","津波避難ビル・水害時避難ビル"
"リブコート塚本","防災関連施設 - 津波避難ビル・水害時避難ビル","西淀川区","西淀川区歌島２丁目６?２","","24時間","指定緊急避難場所","津波、洪水","135.463158004348","34.7141850023006","津波避難ビル・水害時避難ビル"
"苅田土地改良記念会館","防災関連施設 - 津波避難ビル・水害時避難ビル","住吉区","住吉区苅田９丁目５?２７","","9:00～17:15（火・祝(※)・12月30日から１月４日・臨時休館日は除く）※祝日が日曜日と重なる場合は、その翌日","指定緊急避難場所","津波、洪水","135.516481000889","34.5974080009419","津波避難ビル・水害時避難ビル"
"出城第５住宅１号館","防災関連施設 - 津波避難ビル・水害時避難ビル","西成区","出城３?２","","24時間","指定緊急避難場所","津波、洪水","135.489558995423","34.6497169976477","津波避難ビル・水害時避難ビル"
"浪速第９住宅１号館","防災関連施設 - 津波避難ビル・水害時避難ビル","浪速区","浪速西４?１?50","","24時間","指定緊急避難場所","津波、洪水","135.487202995387","34.6539329973417","津波避難ビル・水害時避難ビル"
"市営浪速第７住宅１号館","防災関連施設 - 津波避難ビル・水害時避難ビル","浪速区","浪速東３?２?14","","24時間","指定緊急避難場所","津波、洪水","135.491964003531","34.6540400040418","津波避難ビル・水害時避難ビル"
"市営鴫野住宅１号館","防災関連施設 - 津波避難ビル・水害時避難ビル","城東区","鴫野西５?３?１","","24時間","指定緊急避難場所","津波、洪水","135.543613998228","34.6917000048026","津波避難ビル・水害時避難ビル"
"市営波除第２住宅３号館","防災関連施設 - 津波避難ビル・水害時避難ビル","港区","波除１?５?３","","24時間","指定緊急避難場所","津波、洪水","135.462989999938","34.6748919987855","津波避難ビル・水害時避難ビル"
"市営西中島住宅1号館","防災関連施設 - 津波避難ビル・水害時避難ビル","淀川区","西中島３?11?１","","24時間","指定緊急避難場所","津波、洪水","135.500447999993","34.7272409997797","津波避難ビル・水害時避難ビル"
"市営飛鳥西住宅１号館","防災関連施設 - 津波避難ビル・水害時避難ビル","東淀川区","東中島３?６?１","","24時間","指定緊急避難場所","津波","135.506100997038","34.7310180039761","津波避難ビル・水害時避難ビル"
"市営生江住宅９号館","防災関連施設 - 津波避難ビル・水害時避難ビル","旭区","生江３?24?９","","24時間","指定緊急避難場所","津波、洪水","135.534366995394","34.7293300037192","津波避難ビル・水害時避難ビル"
"市営浅香住宅９号館","防災関連施設 - 津波避難ビル・水害時避難ビル","住吉区","浅香２－１","","24時間","指定緊急避難場所","津波、洪水","135.506706999537","34.5915889985279","津波避難ビル・水害時避難ビル"
"市営日之出住宅10号館","防災関連施設 - 津波避難ビル・水害時避難ビル","東淀川区","西淡路２?６?10","","24時間","指定緊急避難場所","津波","135.506129996564","34.7363269997696","津波避難ビル・水害時避難ビル"
"市営秀野西住宅２号館","防災関連施設 - 津波避難ビル・水害時避難ビル","此花区","酉島１?12?２","","24時間","指定緊急避難場所","津波、洪水","135.443760998628","34.6845209966084","津波避難ビル・水害時避難ビル"
"市営浪速第６住宅１号館","防災関連施設 - 津波避難ビル・水害時避難ビル","浪速区","浪速西２?２","","24時間","指定緊急避難場所","津波、洪水","135.487897003816","34.6568509979938","津波避難ビル・水害時避難ビル"
"市営生江住宅13号館","防災関連施設 - 津波避難ビル・水害時避難ビル","旭区","生江３?17?13","","24時間","指定緊急避難場所","津波、洪水","135.535093997295","34.7282660044773","津波避難ビル・水害時避難ビル"
"市営柏里第２住宅４号館","防災関連施設 - 津波避難ビル・水害時避難ビル","西淀川区","柏里３?15?４","","24時間","指定緊急避難場所","津波、洪水","135.466258997511","34.7128820003558","津波避難ビル・水害時避難ビル"
"市営南港中住宅32号館","防災関連施設 - 津波避難ビル・水害時避難ビル","住之江区","南港中２?８","","24時間","指定緊急避難場所","津波、洪水","135.42693399926","34.6278380027008","津波避難ビル・水害時避難ビル"
"市営新北島住宅１号館","防災関連施設 - 津波避難ビル・水害時避難ビル","住之江区","新北島４?１","","24時間","指定緊急避難場所","津波、洪水","135.468784003041","34.6050429970488","津波避難ビル・水害時避難ビル"
"市営御幣島住宅６号館","防災関連施設 - 津波避難ビル・水害時避難ビル","西淀川区","御幣島６?７?６","","24時間","指定緊急避難場所","津波、洪水","135.454482994943","34.7205299990688","津波避難ビル・水害時避難ビル"
"市営御幣島住宅１号館","防災関連施設 - 津波避難ビル・水害時避難ビル","西淀川区","御幣島６?10?１","","24時間","指定緊急避難場所","津波、洪水","135.454230997373","34.7215010035561","津波避難ビル・水害時避難ビル"
"市営御崎第２住宅１号館","防災関連施設 - 津波避難ビル・水害時避難ビル","住之江区","御崎６?７","","24時間","指定緊急避難場所","津波、洪水","135.479583002254","34.607761997978","津波避難ビル・水害時避難ビル"
"市営御崎住宅８号館","防災関連施設 - 津波避難ビル・水害時避難ビル","住之江区","御崎２?14","","24時間","指定緊急避難場所","津波、洪水","135.477902005145","34.6114679982213","津波避難ビル・水害時避難ビル"
"市営小林住宅５号館","防災関連施設 - 津波避難ビル・水害時避難ビル","大正区","平尾２?23?５","","24時間","指定緊急避難場所","津波、洪水","135.473602997192","34.6421260033938","津波避難ビル・水害時避難ビル"
"市営平林南第２住宅２号館","防災関連施設 - 津波避難ビル・水害時避難ビル","住之江区","平林南２?６","","24時間","指定緊急避難場所","津波、洪水","135.456767001273","34.6084719984814","津波避難ビル・水害時避難ビル"
"市営巽住宅１号館","防災関連施設 - 津波避難ビル・水害時避難ビル","生野区","巽中１?18?12","","24時間","指定緊急避難場所","津波、洪水","135.553587999594","34.6530320027711","津波避難ビル・水害時避難ビル"
"市営南港中住宅45号館","防災関連施設 - 津波避難ビル・水害時避難ビル","住之江区","南港中５?３","","24時間","指定緊急避難場所","津波、洪水","135.41885800224","34.6350740006858","津波避難ビル・水害時避難ビル"
"市営南港中住宅44号館","防災関連施設 - 津波避難ビル・水害時避難ビル","住之江区","南港中５?３","","24時間","指定緊急避難場所","津波、洪水","135.417973004236","34.6348479997773","津波避難ビル・水害時避難ビル"
"市営南港中住宅43号館","防災関連施設 - 津波避難ビル・水害時避難ビル","住之江区","南港中５?３","","24時間","指定緊急避難場所","津波、洪水","135.418878004664","34.6345439983511","津波避難ビル・水害時避難ビル"
"市営南港中住宅41号館","防災関連施設 - 津波避難ビル・水害時避難ビル","住之江区","南港中５?３","","24時間","指定緊急避難場所","津波、洪水","135.419679999321","34.6351239999066","津波避難ビル・水害時避難ビル"
"市営南港中住宅22号館","防災関連施設 - 津波避難ビル・水害時避難ビル","住之江区","南港中２?５","","24時間","指定緊急避難場所","津波、洪水","135.428835995936","34.6280450042978","津波避難ビル・水害時避難ビル"
"市営南住吉第７住宅１号館","防災関連施設 - 津波避難ビル・水害時避難ビル","住吉区","南住吉２?20","","24時間","指定緊急避難場所","津波、洪水","135.5018529949","34.6084539986482","津波避難ビル・水害時避難ビル"
"市営北村住宅１号館","防災関連施設 - 津波避難ビル・水害時避難ビル","大正区","北村２?14?１","","24時間","指定緊急避難場所","津波、洪水","135.46529799773","34.6517460042819","津波避難ビル・水害時避難ビル"
"市営八幡屋第２住宅４号館","防災関連施設 - 津波避難ビル・水害時避難ビル","港区","八幡屋３?10?４","","24時間","指定緊急避難場所","津波、洪水","135.445695003426","34.6538049998314","津波避難ビル・水害時避難ビル"
"市営出来島住宅２号館","防災関連施設 - 津波避難ビル・水害時避難ビル","西淀川区","出来島３?３","","24時間","指定緊急避難場所","津波、洪水","135.432703001993","34.7044279970207","津波避難ビル・水害時避難ビル"
"市営住吉住宅６号館","防災関連施設 - 津波避難ビル・水害時避難ビル","住吉区","帝塚山東５?３","","24時間","指定緊急避難場所","津波、洪水","135.498008000013","34.6149660020553","津波避難ビル・水害時避難ビル"
"市営上住吉住宅３号館","防災関連施設 - 津波避難ビル・水害時避難ビル","住吉区","上住吉１－１","","24時間","指定緊急避難場所","津波、洪水","135.500537001071","34.6111390043566","津波避難ビル・水害時避難ビル"
"市営中加賀屋住宅１号館","防災関連施設 - 津波避難ビル・水害時避難ビル","住之江区","中加賀屋１?９","","24時間","指定緊急避難場所","津波、洪水","135.48058999617","34.6204640027827","津波避難ビル・水害時避難ビル"
"市営三先住宅10号館","防災関連施設 - 津波避難ビル・水害時避難ビル","港区","三先２?17?10","","24時間","指定緊急避難場所","津波、洪水","135.45122300086","34.6581569999249","津波避難ビル・水害時避難ビル"
"市営新北島住宅２号館","防災関連施設 - 津波避難ビル・水害時避難ビル","住之江区","新北島４?１","","24時間","指定緊急避難場所","津波、洪水","135.467567000671","34.6053960008237","津波避難ビル・水害時避難ビル"
"市営東三国住宅３号館","防災関連施設 - 津波避難ビル・水害時避難ビル","淀川区","東三国３?９","","24時間","指定緊急避難場所","津波、洪水","135.500964005332","34.7458470051384","津波避難ビル・水害時避難ビル"
"市営鶴見第２住宅３号館","防災関連施設 - 津波避難ビル・水害時避難ビル","鶴見区","鶴見２-20-３","","24時間","指定緊急避難場所","津波、洪水","135.566034001188","34.6995359999133","津波避難ビル・水害時避難ビル"
"市営鶴町第３住宅１号館","防災関連施設 - 津波避難ビル・水害時避難ビル","大正区","鶴町３‐22","","24時間","指定緊急避難場所","津波、洪水","135.453621995336","34.6421300024517","津波避難ビル・水害時避難ビル"
"市営鶴町住宅１号館","防災関連施設 - 津波避難ビル・水害時避難ビル","大正区","鶴町４-２-１","","24時間","指定緊急避難場所","津波、洪水","135.456584996558","34.6439600047965","津波避難ビル・水害時避難ビル"
"市営飛鳥住宅２号館","防災関連施設 - 津波避難ビル・水害時避難ビル","東淀川区","東中島３-13-２","","24時間","指定緊急避難場所","津波、洪水","135.508897002513","34.730181004304","津波避難ビル・水害時避難ビル"
"市営長居西第2住宅４号館","防災関連施設 - 津波避難ビル・水害時避難ビル","住吉区","長居西１-３-４","","24時間","指定緊急避難場所","津波、洪水","135.508835000107","34.6154760046798","津波避難ビル・水害時避難ビル"
"市営長居西第2住宅３号館","防災関連施設 - 津波避難ビル・水害時避難ビル","住吉区","長居西１-３-３","","24時間","指定緊急避難場所","津波、洪水","135.508984001998","34.6150200031998","津波避難ビル・水害時避難ビル"
"市営長居西第2住宅２号館","防災関連施設 - 津波避難ビル・水害時避難ビル","住吉区","長居西１-10-２","","24時間","指定緊急避難場所","津波、洪水","135.508724999147","34.6145369994396","津波避難ビル・水害時避難ビル"
"市営鶴見第２住宅２号館","防災関連施設 - 津波避難ビル・水害時避難ビル","鶴見区","鶴見２-21-２","","24時間","指定緊急避難場所","津波、洪水","135.566767000617","34.6996390000566","津波避難ビル・水害時避難ビル"
"市府営瓜破２丁目住宅３号館","防災関連施設 - 津波避難ビル・水害時避難ビル","平野区","瓜破２-４-３","","24時間","指定緊急避難場所","洪水","135.552941001223","34.6070370045073","津波避難ビル・水害時避難ビル"
"鶴見第２住宅４号館","防災関連施設 - 津波避難ビル・水害時避難ビル","鶴見区","鶴見２-16-４","","24時間","指定緊急避難場所","津波、洪水","135.565079997885","34.6994870005357","津波避難ビル・水害時避難ビル"
"特別養護老人ホーム　悠の里","防災関連施設 - 津波避難ビル・水害時避難ビル","大正区","小林東2-6-15","","24時間","指定緊急避難場所","津波、洪水","135.476298001109","34.6431369968728","津波避難ビル・水害時避難ビル"
"市営長居西第2住宅１号館","防災関連施設 - 津波避難ビル・水害時避難ビル","住吉区","長居西１-10-１","","24時間","指定緊急避難場所","津波、洪水","135.508647569713","34.6142275116727","津波避難ビル・水害時避難ビル"
"市営苅田北住宅５号館","防災関連施設 - 津波避難ビル・水害時避難ビル","住吉区","苅田４-７-５","","24時間","指定緊急避難場所","津波、洪水","135.522171996538","34.5997160021715","津波避難ビル・水害時避難ビル"
"市営苅田北住宅４号館","防災関連施設 - 津波避難ビル・水害時避難ビル","住吉区","苅田４-７-４","","24時間","指定緊急避難場所","津波、洪水","135.521546995555","34.59972099967","津波避難ビル・水害時避難ビル"
"市営苅田北住宅２号館","防災関連施設 - 津波避難ビル・水害時避難ビル","住吉区","苅田４-８-２","","24時間","指定緊急避難場所","津波、洪水","135.520275994738","34.599824002652","津波避難ビル・水害時避難ビル"
"市営苅田北住宅１号館","防災関連施設 - 津波避難ビル・水害時避難ビル","住吉区","住吉区苅田４-９-１","","24時間","指定緊急避難場所","津波、洪水","135.519549003395","34.5998189967046","津波避難ビル・水害時避難ビル"
"市営苅田北住宅３号館","防災関連施設 - 津波避難ビル・水害時避難ビル","住吉区","苅田４-８-３","","24時間","指定緊急避難場所","津波、洪水","135.52084800267","34.5997899999673","津波避難ビル・水害時避難ビル"
"市営神崎橋住宅１号館","防災関連施設 - 津波避難ビル・水害時避難ビル","淀川区","加島４-19-２","","24時間","指定緊急避難場所","津波、洪水","135.450733997789","34.7319380030829","津波避難ビル・水害時避難ビル"
"市営瓜破２丁目住宅５号館","防災関連施設 - 津波避難ビル・水害時避難ビル","平野区","瓜破２-４-５","","24時間","指定緊急避難場所","洪水","135.552573998149","34.6074830034742","津波避難ビル・水害時避難ビル"
"市営瓜破２丁目住宅４号館","防災関連施設 - 津波避難ビル・水害時避難ビル","平野区","瓜破２-４-４","","24時間","指定緊急避難場所","洪水","135.553229997299","34.6074440004539","津波避難ビル・水害時避難ビル"
"市営瓜破２丁目住宅２号館","防災関連施設 - 津波避難ビル・水害時避難ビル","平野区","瓜破２-４-２","","24時間","指定緊急避難場所","洪水","135.552184002698","34.6066989974243","津波避難ビル・水害時避難ビル"
"市営瓜破２丁目住宅１号館","防災関連施設 - 津波避難ビル・水害時避難ビル","平野区","瓜破２-４-１","","24時間","指定緊急避難場所","洪水","135.55195199636","34.6069880030531","津波避難ビル・水害時避難ビル"
"市営瓜破東住宅３号館","防災関連施設 - 津波避難ビル・水害時避難ビル","平野区","瓜破東２-２","","24時間","指定緊急避難場所","洪水","135.559348000904","34.6075339992355","津波避難ビル・水害時避難ビル"
"市営歌島第２住宅２号棟","防災関連施設 - 津波避難ビル・水害時避難ビル","西淀川区","歌島３-６-２","","24時間","指定緊急避難場所","津波、洪水","135.459801004288","34.7131779984512","津波避難ビル・水害時避難ビル"
"市営歌島第２住宅１号棟","防災関連施設 - 津波避難ビル・水害時避難ビル","西淀川区","歌島３-６-１","","24時間","指定緊急避難場所","津波、洪水","135.459264997351","34.7134179985992","津波避難ビル・水害時避難ビル"
"市営春日出中第２住宅１号館","防災関連施設 - 津波避難ビル・水害時避難ビル","此花区","春日出中１?５?４","","２４時間","指定緊急避難場所","津波、洪水","135.452588996725","34.6790819975437","津波避難ビル・水害時避難ビル"
"市営新生江住宅２号館","防災関連施設 - 津波避難ビル・水害時避難ビル","旭区","生江３-16-２","","24時間","指定緊急避難場所","津波、洪水","135.535544996672","34.7286410013818","津波避難ビル・水害時避難ビル"
"市営大淀住宅１号館","防災関連施設 - 津波避難ビル・水害時避難ビル","北区","本庄東3-6","","24時間","指定緊急避難場所","津波、洪水","135.509156005387","34.7170329965886","津波避難ビル・水害時避難ビル"
"市営大和田第３住宅１号館","防災関連施設 - 津波避難ビル・水害時避難ビル","西淀川区","大和田２-４-１","","24時間","指定緊急避難場所","津波、洪水","135.443329995601","34.7037849971925","津波避難ビル・水害時避難ビル"
"市営城北住宅15号棟","防災関連施設 - 津波避難ビル・水害時避難ビル","旭区","大宮５-７-１","","24時間","指定緊急避難場所","津波、洪水","135.547517004093","34.7298910005351","津波避難ビル・水害時避難ビル"
"市営古市南住宅２号館","防災関連施設 - 津波避難ビル・水害時避難ビル","城東区","古市１-５-２","","24時間","指定緊急避難場所","津波、洪水","135.555015001558","34.7083680014219","津波避難ビル・水害時避難ビル"
"市営古市南住宅１号館","防災関連施設 - 津波避難ビル・水害時避難ビル","城東区","古市１-５-１","","24時間","指定緊急避難場所","津波、洪水","135.555002995886","34.7087649994031","津波避難ビル・水害時避難ビル"
"市営友渕住宅２号棟","防災関連施設 - 津波避難ビル・水害時避難ビル","都島区","友渕町１‐３","","24時間","指定緊急避難場所","津波、洪水","135.527258997696","34.7206090033004","津波避難ビル・水害時避難ビル"
"市営友渕住宅１号棟","防災関連施設 - 津波避難ビル・水害時避難ビル","都島区","友渕町１‐３","","24時間","指定緊急避難場所","津波、洪水","135.526533996566","34.7207610031794","津波避難ビル・水害時避難ビル"
"市営加島東住宅１号館","防災関連施設 - 津波避難ビル・水害時避難ビル","淀川区","加島１-53-１","","24時間","指定緊急避難場所","津波、洪水","135.463731998548","34.7281659979062","津波避難ビル・水害時避難ビル"
"市営伝法住宅１号館","防災関連施設 - 津波避難ビル・水害時避難ビル","此花区","伝法１‐４","","24時間","指定緊急避難場所","津波、洪水","135.458722998056","34.6876830040608","津波避難ビル・水害時避難ビル"
"市営今福南第3住宅７号館","防災関連施設 - 津波避難ビル・水害時避難ビル","城東区","今福南４-９-７","","24時間","指定緊急避難場所","津波、洪水","135.557151000551","34.6988249993249","津波避難ビル・水害時避難ビル"
"市営今福南第3住宅号館","防災関連施設 - 津波避難ビル・水害時避難ビル","城東区","今福南４-９-８","","24時間","指定緊急避難場所","津波、洪水","135.557627996378","34.6990749982892","津波避難ビル・水害時避難ビル"
"市営中加賀屋住宅３号棟","防災関連施設 - 津波避難ビル・水害時避難ビル","住之江区","中加賀屋１-７-３","","24時間","指定緊急避難場所","津波、洪水","135.480481000883","34.6196500009018","津波避難ビル・水害時避難ビル"
"市営中加賀屋住宅２号棟","防災関連施設 - 津波避難ビル・水害時避難ビル","住之江区","中加賀屋１-８-２","","24時間","指定緊急避難場所","津波、洪水","135.480553004085","34.6200529970465","津波避難ビル・水害時避難ビル"
"介護老人保健施設　愛の里","防災関連施設 - 津波避難ビル・水害時避難ビル","大正区","小林東2-6-14","","24時間","指定緊急避難場所","津波、洪水","135.475879999486","34.6431860013703","津波避難ビル・水害時避難ビル"
"グレイスヴィラ姫島","防災関連施設 - 津波避難ビル・水害時避難ビル","西淀川区","姫島4-15-13","","24時間","指定緊急避難場所","津波・洪水","135.450888004475","34.7041349966034","津波避難ビル・水害時避難ビル"
"応用地質株式会社","防災関連施設 - 津波避難ビル・水害時避難ビル","淀川区","田川北2-4-66","","24時間","指定緊急避難場所","津波、洪水","135.471575001949","34.7234399969342","津波避難ビル・水害時避難ビル"
"特別養護老人ホーム ゆめあまみ","防災関連施設 - 津波避難ビル・水害時避難ビル","東住吉区","矢田7-6-10","","24時間","","洪水","135.530191996903","34.5955530005219","津波避難ビル・水害時避難ビル"
"毎日インテシオ","防災関連施設 - 津波避難ビル・水害時避難ビル","北区","梅田3-4-5","","24時間","指定緊急避難場所","津波、洪水","135.490195001167","34.6984720017297","津波避難ビル・水害時避難ビル"
"此花屋内プール","防災関連施設 - 津波避難ビル・水害時避難ビル","此花区","西九条5-4-21","","24時間","","津波、洪水","135.464601995759","34.6835420017924","津波避難ビル・水害時避難ビル"
"特別養護老人ホームクレーネ大阪","防災関連施設 - 津波避難ビル・水害時避難ビル","此花区","春日出北1-22-3","","24時間","","津波、洪水","135.450976003716","34.6839170033195","津波避難ビル・水害時避難ビル"
"特別養護老人ホーム くつろぎ","防災関連施設 - 津波避難ビル・水害時避難ビル","東住吉区","公園南矢田1-4-17","","24時間","","洪水","135.523325995391","34.6069370045303","津波避難ビル・水害時避難ビル"
"障がい者支援施設 ヴァンサンクの郷","防災関連施設 - 津波避難ビル・水害時避難ビル","東住吉区","公園南矢田3-13-22","","8:00～20:00","","洪水","135.526345997764","34.6015679998156","津波避難ビル・水害時避難ビル"
"大阪ラセン管工業","防災関連施設 - 津波避難ビル・水害時避難ビル","西淀川区","姫里3-12-33","","営業時間中（平日9:00～17:30）","指定緊急避難場所","津波、洪水","135.457354000059","34.7089679995087","津波避難ビル・水害時避難ビル"
"在宅介護ステーション せいりょう","防災関連施設 - 津波避難ビル・水害時避難ビル","東住吉区","公園南矢田4-10-6","","8:30～17:30(日･祝日･年末年始除く）","","洪水","135.524608001477","34.5968470020752","津波避難ビル・水害時避難ビル"
"ライオンズ三国","防災関連施設 - 津波避難ビル・水害時避難ビル","淀川区","淀川区新高1-10-13","","24時間","","津波、洪水","135.481874995775","34.7309439983003","津波避難ビル・水害時避難ビル"
"ソレイユあんりゅう・なかのクリニック複合ビル","防災関連施設 - 津波避難ビル・水害時避難ビル","住之江区","安立4-4-15","","24時間","","津波、洪水","135.486933997115","34.5999429977856","津波避難ビル・水害時避難ビル"
"海西ひばり保育園","防災関連施設 - 津波避難ビル・水害時避難ビル","福島区","海老江８-13-21","","24時間","指定緊急避難場所","津波、洪水","135.468186000124","34.6957400029389","津波避難ビル・水害時避難ビル"
"ヴェルデミキ","防災関連施設 - 津波避難ビル・水害時避難ビル","北区","中崎西２-３-28","","24時間","指定緊急避難場所","津波、洪水","135.503026999579","34.7064240013391","津波避難ビル・水害時避難ビル"
"レピアこの花","防災関連施設 - 津波避難ビル・水害時避難ビル","此花区","酉島3-16-17","","24時間","指定緊急避難場所","津波、洪水","135.439832996349","34.6819899980502","津波避難ビル・水害時避難ビル"
"サーパス此花ネオスタイル","防災関連施設 - 津波避難ビル・水害時避難ビル","此花区","島屋３-８-16","","24時間","指定緊急避難場所","津波、洪水","135.442789995158","34.6761500004506","津波避難ビル・水害時避難ビル"
"アトレ御幣島","防災関連施設 - 津波避難ビル・水害時避難ビル","西淀川区","千舟２-15-８","","24時間","指定緊急避難場所","津波、洪水","135.451605995938","34.7124260020447","津波避難ビル・水害時避難ビル"
"英風女子高等専修学校","防災関連施設 - 津波避難ビル・水害時避難ビル","福島区","吉野４-13-４","","24時間","指定緊急避難場所","津波、洪水","135.471646005192","34.6884379996745","津波避難ビル・水害時避難ビル"
"浜理薬品工業（株）","防災関連施設 - 津波避難ビル・水害時避難ビル","東淀川区","柴島１-４-29","","8:30～17:30","指定緊急避難場所","洪水","135.510273001662","34.7265589979073","津波避難ビル・水害時避難ビル"
"此花会館／梅香殿","防災関連施設 - 津波避難ビル・水害時避難ビル","此花区","西九条５-４-24","","24時間","指定緊急避難場所","津波、洪水","135.464339996069","34.6836269986229","津波避難ビル・水害時避難ビル"
"大阪労働衛生総合センター","防災関連施設 - 津波避難ビル・水害時避難ビル","西区","土佐堀２-３-８","","9:00～17:00","指定緊急避難場所","津波、洪水","135.489985997636","34.68810700303","津波避難ビル・水害時避難ビル"
"シンプルハートホテル大阪","防災関連施設 - 津波避難ビル・水害時避難ビル","此花区","島屋３-10-31","","24時間","指定緊急避難場所","津波、洪水","135.44319200466","34.6755309968659","津波避難ビル・水害時避難ビル"
"淀川リバーサイドヴィラ","防災関連施設 - 津波避難ビル・水害時避難ビル","此花区","伝法５-４-12","","24時間","指定緊急避難場所","津波、洪水","135.44925099787","34.6877330014922","津波避難ビル・水害時避難ビル"
"阪神住建グランドヴィラ此花Ⅰ","防災関連施設 - 津波避難ビル・水害時避難ビル","此花区","伝法６-２-１","","24時間","指定緊急避難場所","津波、洪水","135.450980995146","34.686340002576","津波避難ビル・水害時避難ビル"
"住友電気工業㈱大阪製作所　浩気寮","防災関連施設 - 津波避難ビル・水害時避難ビル","此花区","酉島３-23-５","","24時間","指定緊急避難場所","津波、洪水","135.438405001625","34.6822090016974","津波避難ビル・水害時避難ビル"
"レジデンス福島Ⅱ","防災関連施設 - 津波避難ビル・水害時避難ビル","福島区","吉野４-24-20","","24時間","指定緊急避難場所","津波、洪水","135.470303998913","34.6878629996079","津波避難ビル・水害時避難ビル"
"桃谷中学校","防災関連施設 - 津波避難ビル・水害時避難ビル","生野区","勝山北3-13-44","","24時間","指定緊急避難場所","洪水","135.533619537772","34.6548787502391","津波避難ビル・水害時避難ビル"
"もと鶴橋中学校","防災関連施設 - 津波避難ビル・水害時避難ビル","生野区","勝山北4-9-22","","24時間","指定緊急避難場所","洪水","135.537392863345","34.6563681460066","津波避難ビル・水害時避難ビル"
"UR賃貸住宅(千島)","防災関連施設 - 津波避難ビル・水害時避難ビル","大正区","千島2-4","","24時間","","津波、洪水","135.476396009455","34.6491061711958","津波避難ビル・水害時避難ビル"
"埋蔵文化財鶴浜収蔵倉庫","防災関連施設 - 津波避難ビル・水害時避難ビル","大正区","鶴町2-20-26","","24時間","指定緊急避難場所","津波、洪水","135.452885598945","34.6382336099883","津波避難ビル・水害時避難ビル"
"日本橋小中一貫校","防災関連施設 - 津波避難ビル・水害時避難ビル","浪速区","日本橋西1-7-6","","24時間","指定緊急避難場所","津波、洪水","135.503973478661","34.6584197395905","津波避難ビル・水害時避難ビル"
"咲洲みなみ小中一貫校","防災関連施設 - 津波避難ビル・水害時避難ビル","住之江区","南港中3-5-14","","24時間","指定緊急避難場所","津波、洪水","135.425782131277","34.6285267682749","津波避難ビル・水害時避難ビル"
"英風女子高等専修学校[別館]","防災関連施設 - 津波避難ビル・水害時避難ビル","福島区","吉野4-2-13","","24時間","指定緊急避難場所","津波、洪水","135.472489885979","34.6882184240449","津波避難ビル・水害時避難ビル"
"もと日東小学校","防災関連施設 - 津波避難ビル・水害時避難ビル","浪速区","日本橋東3-1-23","","24時間","指定緊急避難場所","津波、洪水","135.508283290914","34.6580862378833","津波避難ビル・水害時避難ビル"
"もと日本橋小学校","防災関連施設 - 津波避難ビル・水害時避難ビル","浪速区","日本橋3-2-27","","24時間","指定緊急避難場所","津波、洪水","135.506824029902","34.6622415891329","津波避難ビル・水害時避難ビル"
"もと恵美小学校","防災関連施設 - 津波避難ビル・水害時避難ビル","浪速区","恵美須西2-13-9","","24時間","指定緊急避難場所","津波、洪水","135.502604297647","34.65290167345","津波避難ビル・水害時避難ビル"
"難波支援学校 なにわ高等支援学校","防災関連施設 - 津波避難ビル・水害時避難ビル","浪速区","木津川2-3-30","","24時間","指定緊急避難場所","津波、洪水","135.483928335981","34.6590390192404","津波避難ビル・水害時避難ビル"
"市営新生江住宅1号館","防災関連施設 - 津波避難ビル・水害時避難ビル","旭区","生江3-21","","24時間","指定緊急避難場所","津波、洪水","135.533802996823","34.7286470042044","津波避難ビル・水害時避難ビル"
"辰野新大阪ビル","防災関連施設 - 津波避難ビル・水害時避難ビル","淀川区","西中島7－1－5","","平日(9:00～17:30)　（土・日・祝除く）","指定緊急避難場所","津波、洪水","135.49747499838","34.7298549993715","津波避難ビル・水害時避難ビル"
"大阪港湾合同庁舎","防災関連施設 - 津波避難ビル・水害時避難ビル","港区","築港4-10-3","","24時間","指定緊急避難場所","津波、洪水","135.430636997086","34.6532511639289","津波避難ビル・水害時避難ビル"
"㈱日立物流　第一ビル","防災関連施設 - 津波避難ビル・水害時避難ビル","此花区","西九条1-28-13","","24時間","指定緊急避難場所","津波、洪水","135.468120970827","34.6808636784735","津波避難ビル・水害時避難ビル"
"㈱日立物流　安治川物流センター","防災関連施設 - 津波避難ビル・水害時避難ビル","此花区","西九条1-37-32","","24時間","指定緊急避難場所","津波、洪水","135.468023397922","34.6802680505476","津波避難ビル・水害時避難ビル"
"ホテル阪神","防災関連施設 - 津波避難ビル・水害時避難ビル","福島区","福島5-6-16","","24時間","指定緊急避難場所","津波、洪水","135.487722003042","34.6969240048547","津波避難ビル・水害時避難ビル"
"ペルル加島","防災関連施設 - 津波避難ビル・水害時避難ビル","淀川区","加島3－11－53","","月～金(9:00～17:00)　土(9:00～15:00)","指定緊急避難場所","津波、洪水","135.452295995907","34.7287840020145","津波避難ビル・水害時避難ビル"
"エスリード弁天町南","防災関連施設 - 津波避難ビル・水害時避難ビル","港区","南市岡3-2-15","","24時間","指定緊急避難場所","津波、洪水","135.46531212726","34.6654946845276","津波避難ビル・水害時避難ビル"
"関西金網㈱","防災関連施設 - 津波避難ビル・水害時避難ビル","浪速区","稲荷2-7-8","","平日8:30～18:00","指定緊急避難場所","津波、洪水","135.490178843554","34.6637080077912","津波避難ビル・水害時避難ビル"
"正電社・Shoden　1ばん店","防災関連施設 - 津波避難ビル・水害時避難ビル","浪速区","日本橋3-8-9","","8:30～19:00","指定緊急避難場所","津波、洪水","135.505295997066","34.6615291542089","津波避難ビル・水害時避難ビル"
"日新製鋼㈱　伝法寮","防災関連施設 - 津波避難ビル・水害時避難ビル","此花区","伝法5-1-18","","8:30～22:00","指定緊急避難場所","津波、洪水","135.448968319338","34.6871411928058","津波避難ビル・水害時避難ビル"
"㈱５５１蓬莱","防災関連施設 - 津波避難ビル・水害時避難ビル","浪速区","桜川4-2-5","","9:00～20:00","指定緊急避難場所","津波、洪水","135.48461569379","34.6675826399186","津波避難ビル・水害時避難ビル"
"㈱関西マツダ","防災関連施設 - 津波避難ビル・水害時避難ビル","浪速区","桜川1-3-25","","9:00～19:00","指定緊急避難場所","津波、洪水","135.493261212566","34.6669106106416","津波避難ビル・水害時避難ビル"
"㈱芦原自動車教習所","防災関連施設 - 津波避難ビル・水害時避難ビル","浪速区","浪速西1-12-23","","10:00～18:00","指定緊急避難場所","津波、洪水","135.485934092522","34.6587910034636","津波避難ビル・水害時避難ビル"
"トモドール北梅田","防災関連施設 - 津波避難ビル・水害時避難ビル","福島区","福島6-23-21","","平日9:00～17:00","指定緊急避難場所","津波、洪水","135.489941640531","34.7019110954129","津波避難ビル・水害時避難ビル"
"INSOUビル","防災関連施設 - 津波避難ビル・水害時避難ビル","西区","新町3-6-10","","10:00～19:00　（土日祝除く）","指定緊急避難場所","津波、洪水","135.489213001363","34.6761169988957","津波避難ビル・水害時避難ビル"
"市営長吉出戸南第1住宅7号館","防災関連施設 - 津波避難ビル・水害時避難ビル","平野区","長吉出戸8-7","","24時間","指定緊急避難場所","洪水","135.57580590499","34.6073826890066","津波避難ビル・水害時避難ビル"
"市営長吉出戸南第1住宅6号館","防災関連施設 - 津波避難ビル・水害時避難ビル","平野区","長吉出戸8-7","","24時間","指定緊急避難場所","洪水","135.575366015587","34.607161926462","津波避難ビル・水害時避難ビル"
"市営野中北住宅1号館","防災関連施設 - 津波避難ビル・水害時避難ビル","淀川区","野中北2-4","","24時間","指定緊急避難場所","津波、洪水","135.480142237538","34.7286869209125","津波避難ビル・水害時避難ビル"
"市営内代第2住宅1号館","防災関連施設 - 津波避難ビル・水害時避難ビル","都島区","内代町2-15-30","","24時間","指定緊急避難場所","津波、洪水","135.536184307598","34.7119097611045","津波避難ビル・水害時避難ビル"
"レックスシティアルベール","防災関連施設 - 津波避難ビル・水害時避難ビル","西淀川区","大和田2-6-8","","24時間","指定緊急避難場所","津波、洪水","135.442033409899","34.7013037752433","津波避難ビル・水害時避難ビル"
"市営長吉出戸西住宅23号館","防災関連施設 - 津波避難ビル・水害時避難ビル","平野区","長吉出戸2-25","","24時間","指定緊急避難場所","洪水","135.568526516524","34.6123196744127","津波避難ビル・水害時避難ビル"
"市営長吉出戸西住宅24号館","防災関連施設 - 津波避難ビル・水害時避難ビル","平野区","長吉出戸2-6","","24時間","指定緊急避難場所","洪水","135.567477180294","34.6122901121535","津波避難ビル・水害時避難ビル"
"市営東喜連第4住宅2号館","防災関連施設 - 津波避難ビル・水害時避難ビル","平野区","喜連東5-2","","24時間","指定緊急避難場所","洪水","135.563039796236","34.6100519852112","津波避難ビル・水害時避難ビル"
"市営東喜連第4住宅3号館","防災関連施設 - 津波避難ビル・水害時避難ビル","平野区","喜連東5-3","","24時間","指定緊急避難場所","洪水","135.564111955556","34.6100004489427","津波避難ビル・水害時避難ビル"
"市営東喜連第4住宅4号館","防災関連施設 - 津波避難ビル・水害時避難ビル","平野区","喜連東5-13","","24時間","指定緊急避難場所","洪水","135.565033547428","34.6104393445356","津波避難ビル・水害時避難ビル"
"市営東喜連第4住宅5号館","防災関連施設 - 津波避難ビル・水害時避難ビル","平野区","喜連東5-4","","24時間","指定緊急避難場所","洪水","135.56425832339","34.6094546222786","津波避難ビル・水害時避難ビル"
"市営東喜連第4住宅6号館","防災関連施設 - 津波避難ビル・水害時避難ビル","平野区","喜連東3-10","","24時間","指定緊急避難場所","洪水","135.562773232396","34.60957113196","津波避難ビル・水害時避難ビル"
"市営東喜連第4住宅7号館","防災関連施設 - 津波避難ビル・水害時避難ビル","平野区","喜連東3-9","","24時間","指定緊急避難場所","洪水","135.561918612504","34.6096197505653","津波避難ビル・水害時避難ビル"
"市営東喜連第4住宅8号館","防災関連施設 - 津波避難ビル・水害時避難ビル","平野区","喜連東3-5","","24時間","指定緊急避難場所","洪水","135.561205696544","34.609587654776","津波避難ビル・水害時避難ビル"
"市営東喜連第4住宅9号館","防災関連施設 - 津波避難ビル・水害時避難ビル","平野区","喜連東3-6","","24時間","指定緊急避難場所","洪水","135.561041458326","34.6101149502205","津波避難ビル・水害時避難ビル"
"市営長吉住宅1号館","防災関連施設 - 津波避難ビル・水害時避難ビル","平野区","長吉長原2-14","","24時間","指定緊急避難場所","洪水","135.571937477864","34.6053029595121","津波避難ビル・水害時避難ビル"
"市営長吉川辺住宅1号館","防災関連施設 - 津波避難ビル・水害時避難ビル","平野区","長吉川辺3-21","","24時間","指定緊急避難場所","洪水","135.579350811306","34.5940866353734","津波避難ビル・水害時避難ビル"
"市営喜連第2住宅1号館","防災関連施設 - 津波避難ビル・水害時避難ビル","平野区","喜連4-10","","24時間","指定緊急避難場所","洪水","135.554731995035","34.6099501598206","津波避難ビル・水害時避難ビル"
"市営喜連第2住宅3号館","防災関連施設 - 津波避難ビル・水害時避難ビル","平野区","喜連4-13","","24時間","指定緊急避難場所","洪水","135.555741898918","34.6099085038411","津波避難ビル・水害時避難ビル"
"市営加美北住宅1号館","防災関連施設 - 津波避難ビル・水害時避難ビル","平野区","加美北8-14","","24時間","指定緊急避難場所","洪水","135.564770450714","34.6348211686163","津波避難ビル・水害時避難ビル"
"市営加美北住宅2号館","防災関連施設 - 津波避難ビル・水害時避難ビル","平野区","加美北8-18","","24時間","指定緊急避難場所","洪水","135.564738223211","34.6343424644446","津波避難ビル・水害時避難ビル"
"市営加美北第2住宅1号館","防災関連施設 - 津波避難ビル・水害時避難ビル","平野区","加美北8-9","","24時間","指定緊急避難場所","洪水","135.56317050954","34.6353297560324","津波避難ビル・水害時避難ビル"
"市営加美北第2住宅2号館","防災関連施設 - 津波避難ビル・水害時避難ビル","平野区","加美北8-13","","24時間","指定緊急避難場所","洪水","135.563016954064","34.6348148987124","津波避難ビル・水害時避難ビル"
"市営加美北第2住宅3号館","防災関連施設 - 津波避難ビル・水害時避難ビル","平野区","加美北8-19","","24時間","指定緊急避難場所","洪水","135.562997995036","34.6342933834668","津波避難ビル・水害時避難ビル"
"市営喜連住宅1号館","防災関連施設 - 津波避難ビル・水害時避難ビル","平野区","喜連7-3","","24時間","指定緊急避難場所","洪水","135.557170840472","34.6113341003329","津波避難ビル・水害時避難ビル"
"市営喜連住宅2号館","防災関連施設 - 津波避難ビル・水害時避難ビル","平野区","喜連7-4","","24時間","指定緊急避難場所","洪水","135.557019090359","34.6105251368788","津波避難ビル・水害時避難ビル"
"市営喜連住宅3号館","防災関連施設 - 津波避難ビル・水害時避難ビル","平野区","喜連7-4","","24時間","指定緊急避難場所","洪水","135.557049872436","34.6099132595634","津波避難ビル・水害時避難ビル"
"市営西喜連第3住宅1号館","防災関連施設 - 津波避難ビル・水害時避難ビル","平野区","喜連西2-2","","24時間","指定緊急避難場所","洪水","135.542446829913","34.6133423221792","津波避難ビル・水害時避難ビル"
"市営西喜連第3住宅2号館","防災関連施設 - 津波避難ビル・水害時避難ビル","平野区","喜連西2-2","","24時間","指定緊急避難場所","洪水","135.54252837385","34.6130080285523","津波避難ビル・水害時避難ビル"
"市営西喜連第3住宅3号館","防災関連施設 - 津波避難ビル・水害時避難ビル","平野区","喜連西3-3","","24時間","指定緊急避難場所","洪水","135.54245643616","34.6123188796757","津波避難ビル・水害時避難ビル"
"市営西喜連第3住宅4号館","防災関連施設 - 津波避難ビル・水害時避難ビル","平野区","喜連西3-3","","24時間","指定緊急避難場所","洪水","135.542486037917","34.6120073619599","津波避難ビル・水害時避難ビル"
"市営西喜連第3住宅5号館","防災関連施設 - 津波避難ビル・水害時避難ビル","平野区","喜連西3-2","","24時間","指定緊急避難場所","洪水","135.541327279022","34.6111041946637","津波避難ビル・水害時避難ビル"
"市営西喜連第3住宅6号館","防災関連施設 - 津波避難ビル・水害時避難ビル","平野区","喜連西3-2","","24時間","指定緊急避難場所","洪水","135.541254027699","34.6113794691386","津波避難ビル・水害時避難ビル"
"市営長吉長原住宅1号館","防災関連施設 - 津波避難ビル・水害時避難ビル","平野区","長吉長原4-3","","24時間","指定緊急避難場所","洪水","135.568373019877","34.5999107773634","津波避難ビル・水害時避難ビル"
"市営長吉長原住宅2号館","防災関連施設 - 津波避難ビル・水害時避難ビル","平野区","長吉長原4-3","","24時間","指定緊急避難場所","洪水","135.568761197107","34.5995555520806","津波避難ビル・水害時避難ビル"
"市営加美南住宅1号館","防災関連施設 - 津波避難ビル・水害時避難ビル","平野区","加美南1-5","","24時間","指定緊急避難場所","洪水","135.570950796183","34.6249668929615","津波避難ビル・水害時避難ビル"
"市営瓜破東第1住宅1号館","防災関連施設 - 津波避難ビル・水害時避難ビル","平野区","瓜破東1-6","","24時間","指定緊急避難場所","洪水","135.55672137617","34.6076621650183","津波避難ビル・水害時避難ビル"
"市営瓜破東第1住宅2号館","防災関連施設 - 津波避難ビル・水害時避難ビル","平野区","瓜破東1-6","","24時間","指定緊急避難場所","洪水","135.557135873273","34.6070440269634","津波避難ビル・水害時避難ビル"
"市営瓜破東第1住宅3号館","防災関連施設 - 津波避難ビル・水害時避難ビル","平野区","瓜破東1-12","","24時間","指定緊急避難場所","洪水","135.557204128386","34.6066785000388","津波避難ビル・水害時避難ビル"
"市営瓜破東第1住宅4号館","防災関連施設 - 津波避難ビル・水害時避難ビル","平野区","瓜破東1-11","","24時間","指定緊急避難場所","洪水","135.556232833428","34.6066149117633","津波避難ビル・水害時避難ビル"
"市営瓜破東第1住宅5号館","防災関連施設 - 津波避難ビル・水害時避難ビル","平野区","瓜破東1-6","","24時間","指定緊急避難場所","洪水","135.556257396812","34.6069862389671","津波避難ビル・水害時避難ビル"
"市営加美北第3住宅1号館","防災関連施設 - 津波避難ビル・水害時避難ビル","平野区","加美北8-2","","24時間","指定緊急避難場所","洪水","135.563091293104","34.6363652266772","津波避難ビル・水害時避難ビル"
"市営加美正覚寺東住宅2号館","防災関連施設 - 津波避難ビル・水害時避難ビル","平野区","加美正覚寺3-9","","24時間","指定緊急避難場所","洪水","135.56216826547","34.6317590694684","津波避難ビル・水害時避難ビル"
"市営加美正覚寺東住宅3号館","防災関連施設 - 津波避難ビル・水害時避難ビル","平野区","加美正覚寺3-11","","24時間","指定緊急避難場所","洪水","135.562633283601","34.6312621257473","津波避難ビル・水害時避難ビル"
"市営西喜連第4住宅1号館","防災関連施設 - 津波避難ビル・水害時避難ビル","平野区","喜連西1-10","","24時間","指定緊急避難場所","洪水","135.542490906777","34.615985303926","津波避難ビル・水害時避難ビル"
"市営西喜連第4住宅2号館","防災関連施設 - 津波避難ビル・水害時避難ビル","平野区","喜連西2-10","","24時間","指定緊急避難場所","洪水","135.542756484559","34.6139396858102","津波避難ビル・水害時避難ビル"
"市営西喜連第4住宅3号館","防災関連施設 - 津波避難ビル・水害時避難ビル","平野区","喜連西1-3","","24時間","指定緊急避難場所","洪水","135.541318798015","34.6153997645957","津波避難ビル・水害時避難ビル"
"市営西喜連第4住宅4号館","防災関連施設 - 津波避難ビル・水害時避難ビル","平野区","喜連西1-3","","24時間","指定緊急避難場所","洪水","135.541261120189","34.6147245613596","津波避難ビル・水害時避難ビル"
"市営西喜連第4住宅5号館","防災関連施設 - 津波避難ビル・水害時避難ビル","平野区","喜連西2-1","","24時間","指定緊急避難場所","洪水","135.54119444693","34.614089036177","津波避難ビル・水害時避難ビル"
"市営加美東第2住宅1号館","防災関連施設 - 津波避難ビル・水害時避難ビル","平野区","加美東6-3","","24時間","指定緊急避難場所","洪水","135.57426877437","34.6301163349241","津波避難ビル・水害時避難ビル"
"市営加美東第2住宅2号館","防災関連施設 - 津波避難ビル・水害時避難ビル","平野区","加美東6-3","","24時間","指定緊急避難場所","洪水","135.575360888252","34.6301600071204","津波避難ビル・水害時避難ビル"
"市営加美東第2住宅3号館","防災関連施設 - 津波避難ビル・水害時避難ビル","平野区","加美東6-6","","24時間","指定緊急避難場所","洪水","135.574856109847","34.6296821651986","津波避難ビル・水害時避難ビル"
"市営加美東第1住宅1号館","防災関連施設 - 津波避難ビル・水害時避難ビル","平野区","加美東3-6","","24時間","指定緊急避難場所","洪水","135.572167831691","34.6326824338629","津波避難ビル・水害時避難ビル"
"市営加美東第1住宅2号館","防災関連施設 - 津波避難ビル・水害時避難ビル","平野区","加美東3-5","","24時間","指定緊急避難場所","洪水","135.573092660834","34.6327146672531","津波避難ビル・水害時避難ビル"
"市営加美東第1住宅4号館","防災関連施設 - 津波避難ビル・水害時避難ビル","平野区","加美東3-8","","24時間","指定緊急避難場所","洪水","135.573130777918","34.6321529918999","津波避難ビル・水害時避難ビル"
"市営加美東第1住宅6号館","防災関連施設 - 津波避難ビル・水害時避難ビル","平野区","加美東3-10","","24時間","指定緊急避難場所","洪水","135.573093713631","34.6316490481045","津波避難ビル・水害時避難ビル"
"市営東喜連第5住宅1号館","防災関連施設 - 津波避難ビル・水害時避難ビル","平野区","喜連東4-8","","24時間","指定緊急避難場所","洪水","135.564391499924","34.6118619905062","津波避難ビル・水害時避難ビル"
"市営東喜連第5住宅2号館","防災関連施設 - 津波避難ビル・水害時避難ビル","平野区","喜連東5-1","","24時間","指定緊急避難場所","洪水","135.564551613721","34.6112608412598","津波避難ビル・水害時避難ビル"
"市営西喜連第5住宅1号館","防災関連施設 - 津波避難ビル・水害時避難ビル","平野区","喜連西4-2","","24時間","指定緊急避難場所","洪水","135.542669658541","34.6099480747445","津波避難ビル・水害時避難ビル"
"市営西喜連第5住宅2号館","防災関連施設 - 津波避難ビル・水害時避難ビル","平野区","喜連西3-18","","24時間","指定緊急避難場所","洪水","135.5449488292","34.6110386747616","津波避難ビル・水害時避難ビル"
"市営西喜連第5住宅3号館","防災関連施設 - 津波避難ビル・水害時避難ビル","平野区","喜連西3-16","","24時間","指定緊急避難場所","洪水","135.544126833338","34.611304304456","津波避難ビル・水害時避難ビル"
"市営西喜連第5住宅4号館","防災関連施設 - 津波避難ビル・水害時避難ビル","平野区","喜連西3-8","","24時間","指定緊急避難場所","洪水","135.542518268888","34.611007795208","津波避難ビル・水害時避難ビル"
"市営長吉六反第1住宅1号館","防災関連施設 - 津波避難ビル・水害時避難ビル","平野区","長吉六反1-11","","24時間","指定緊急避難場所","洪水","135.579463374999","34.608992930263","津波避難ビル・水害時避難ビル"
"市営長吉六反第1住宅2号館","防災関連施設 - 津波避難ビル・水害時避難ビル","平野区","長吉六反1-11","","24時間","指定緊急避難場所","洪水","135.580703772871","34.6088337983486","津波避難ビル・水害時避難ビル"
"市営長吉六反第1住宅3号館","防災関連施設 - 津波避難ビル・水害時避難ビル","平野区","長吉六反1-11","","24時間","指定緊急避難場所","洪水","135.580217109387","34.6091153563624","津波避難ビル・水害時避難ビル"
"市営東喜連住宅1号館","防災関連施設 - 津波避難ビル・水害時避難ビル","平野区","喜連東4-5","","24時間","指定緊急避難場所","洪水","135.564465937786","34.6126540989632","津波避難ビル・水害時避難ビル"
"市営長吉出戸南第1住宅1号館","防災関連施設 - 津波避難ビル・水害時避難ビル","平野区","長吉出戸8-10","","24時間","指定緊急避難場所","洪水","135.575825454254","34.6082640227312","津波避難ビル・水害時避難ビル"
"市営長吉出戸南第1住宅2号館","防災関連施設 - 津波避難ビル・水害時避難ビル","平野区","長吉出戸8-3-2","","24時間","指定緊急避難場所","洪水","135.574972880741","34.6084970833842","津波避難ビル・水害時避難ビル"
"市営長吉出戸南第1住宅3号館","防災関連施設 - 津波避難ビル・水害時避難ビル","平野区","長吉出戸8-3-3","","24時間","指定緊急避難場所","洪水","135.574418834884","34.6081465602056","津波避難ビル・水害時避難ビル"
"市営長吉出戸南第1住宅4号館","防災関連施設 - 津波避難ビル・水害時避難ビル","平野区","長吉出戸8-11","","24時間","指定緊急避難場所","洪水","135.577462982081","34.6072130566604","津波避難ビル・水害時避難ビル"
"市営瓜破東住宅2号館","防災関連施設 - 津波避難ビル・水害時避難ビル","平野区","瓜破東2-3","","24時間","指定緊急避難場所","洪水","135.56014053199","34.6073728270008","津波避難ビル・水害時避難ビル"
"市営長吉第2住宅1号館","防災関連施設 - 津波避難ビル・水害時避難ビル","平野区","長吉出戸1-1-1","","24時間","指定緊急避難場所","洪水","135.562374141115","34.6163973843376","津波避難ビル・水害時避難ビル"
"市営長吉第2住宅2号館","防災関連施設 - 津波避難ビル・水害時避難ビル","平野区","長吉出戸1-1-2","","24時間","指定緊急避難場所","洪水","135.562809836036","34.6161271468838","津波避難ビル・水害時避難ビル"
"市営長吉第2住宅3号館","防災関連施設 - 津波避難ビル・水害時避難ビル","平野区","長吉出戸1-1-3","","24時間","指定緊急避難場所","洪水","135.563384588763","34.6160808025768","津波避難ビル・水害時避難ビル"
"市営瓜破東8丁目住宅2号館","防災関連施設 - 津波避難ビル・水害時避難ビル","平野区","瓜破東8-9-2","","24時間","指定緊急避難場所","洪水","135.56046489806","34.5987914967494","津波避難ビル・水害時避難ビル"
"市営瓜破東8丁目住宅4号館","防災関連施設 - 津波避難ビル・水害時避難ビル","平野区","瓜破東8-9-4","","24時間","指定緊急避難場所","洪水","135.559948621619","34.5987203448874","津波避難ビル・水害時避難ビル"
"市営瓜破東1丁目住宅1号館","防災関連施設 - 津波避難ビル・水害時避難ビル","平野区","瓜破東1-3-1","","24時間","指定緊急避難場所","洪水","135.557840304428","34.6085015575635","津波避難ビル・水害時避難ビル"
"市営瓜破東1丁目住宅2号館","防災関連施設 - 津波避難ビル・水害時避難ビル","平野区","瓜破東1-3-2","","24時間","指定緊急避難場所","洪水","135.557679518733","34.6082467725697","津波避難ビル・水害時避難ビル"
"市営瓜破東1丁目住宅3号館","防災関連施設 - 津波避難ビル・水害時避難ビル","平野区","瓜破東1-4-3","","24時間","指定緊急避難場所","洪水","135.558137964093","34.6076923748352","津波避難ビル・水害時避難ビル"
"市営瓜破東1丁目住宅4号館","防災関連施設 - 津波避難ビル・水害時避難ビル","平野区","瓜破東1-4-4","","24時間","指定緊急避難場所","洪水","135.557965560142","34.6074470772012","津波避難ビル・水害時避難ビル"
"市営瓜破東1丁目住宅5号館","防災関連施設 - 津波避難ビル・水害時避難ビル","平野区","瓜破東1-4-5","","24時間","指定緊急避難場所","洪水","135.557690001708","34.6077257037059","津波避難ビル・水害時避難ビル"
"市営長吉長原西住宅1号館","防災関連施設 - 津波避難ビル・水害時避難ビル","平野区","長吉長原西3-9","","24時間","指定緊急避難場所","洪水","135.567593696524","34.6004264303903","津波避難ビル・水害時避難ビル"
"市営長吉長原西住宅6号館","防災関連施設 - 津波避難ビル・水害時避難ビル","平野区","長吉長原西3-10","","24時間","指定緊急避難場所","洪水","135.567648847143","34.5993439768646","津波避難ビル・水害時避難ビル"
"市営長吉長原東第4住宅37号館","防災関連施設 - 津波避難ビル・水害時避難ビル","平野区","長吉長原東3-4","","24時間","指定緊急避難場所","洪水","135.576703190277","34.6002824574433","津波避難ビル・水害時避難ビル"
"市営長吉長原東第4住宅38号館","防災関連施設 - 津波避難ビル・水害時避難ビル","平野区","長吉長原東3-3","","24時間","指定緊急避難場所","洪水","135.576686186338","34.5992136865861","津波避難ビル・水害時避難ビル"
"市営長吉長原西第2住宅1号館","防災関連施設 - 津波避難ビル・水害時避難ビル","平野区","長吉長原西3-6","","24時間","指定緊急避難場所","洪水","135.566191238223","34.6011908036413","津波避難ビル・水害時避難ビル"
"市営平野東住宅1号館","防災関連施設 - 津波避難ビル・水害時避難ビル","平野区","平野南3-10","","24時間","指定緊急避難場所","洪水","135.560511165733","34.6195029985338","津波避難ビル・水害時避難ビル"
"市営平野東住宅3号館","防災関連施設 - 津波避難ビル・水害時避難ビル","平野区","平野南3-9","","24時間","指定緊急避難場所","洪水","135.561320840364","34.6194789844147","津波避難ビル・水害時避難ビル"
"市営平野東住宅4号館","防災関連施設 - 津波避難ビル・水害時避難ビル","平野区","平野南3-11","","24時間","指定緊急避難場所","洪水","135.561573837399","34.6187967936647","津波避難ビル・水害時避難ビル"
"市営平野東住宅5号館","防災関連施設 - 津波避難ビル・水害時避難ビル","平野区","平野南3-11","","24時間","指定緊急避難場所","洪水","135.560793450353","34.6186964059124","津波避難ビル・水害時避難ビル"
"市営長吉長原東住宅3号館","防災関連施設 - 津波避難ビル・水害時避難ビル","平野区","長吉長原東2-1","","24時間","指定緊急避難場所","洪水","135.574223286105","34.6031082923165","津波避難ビル・水害時避難ビル"
"市営長吉長原東住宅4号館","防災関連施設 - 津波避難ビル・水害時避難ビル","平野区","長吉長原東2-1","","24時間","指定緊急避難場所","洪水","135.574724174869","34.6032499556098","津波避難ビル・水害時避難ビル"
"市営長吉長原東住宅5号館","防災関連施設 - 津波避難ビル・水害時避難ビル","平野区","長吉長原東1-8","","24時間","指定緊急避難場所","洪水","135.574990143067","34.6031212071697","津波避難ビル・水害時避難ビル"
"市営長吉長原東住宅6号館","防災関連施設 - 津波避難ビル・水害時避難ビル","平野区","長吉長原東1-9","","24時間","指定緊急避難場所","洪水","135.577215310583","34.6054145432759","津波避難ビル・水害時避難ビル"
"市営長吉長原東住宅7号館","防災関連施設 - 津波避難ビル・水害時避難ビル","平野区","長吉長原東1-9","","24時間","指定緊急避難場所","洪水","135.577214542727","34.604759331409","津波避難ビル・水害時避難ビル"
"市営長吉長原東住宅8号館","防災関連施設 - 津波避難ビル・水害時避難ビル","平野区","長吉長原東1-11","","24時間","指定緊急避難場所","洪水","135.577193801324","34.604020046293","津波避難ビル・水害時避難ビル"
"市営長吉長原東住宅9号館","防災関連施設 - 津波避難ビル・水害時避難ビル","平野区","長吉長原東1-5","","24時間","指定緊急避難場所","洪水","135.576006455694","34.6039285594725","津波避難ビル・水害時避難ビル"
"市営長吉長原東住宅10号館","防災関連施設 - 津波避難ビル・水害時避難ビル","平野区","長吉長原東2-5","","24時間","指定緊急避難場所","洪水","135.575890679988","34.6034174349738","津波避難ビル・水害時避難ビル"
"市営長吉長原東住宅11号館","防災関連施設 - 津波避難ビル・水害時避難ビル","平野区","長吉長原東2-5","","24時間","指定緊急避難場所","洪水","135.576720462548","34.6031851088294","津波避難ビル・水害時避難ビル"
"市営長吉長原東住宅12号館","防災関連施設 - 津波避難ビル・水害時避難ビル","平野区","長吉長原東2-6","","24時間","指定緊急避難場所","洪水","135.577651722595","34.6022576026814","津波避難ビル・水害時避難ビル"
"市営長吉長原東住宅13号館","防災関連施設 - 津波避難ビル・水害時避難ビル","平野区","長吉長原東2-7","","24時間","指定緊急避難場所","洪水","135.579120886864","34.6023097206784","津波避難ビル・水害時避難ビル"
"市営長吉長原東住宅14号館","防災関連施設 - 津波避難ビル・水害時避難ビル","平野区","長吉六反3-8","","24時間","指定緊急避難場所","洪水","135.580422882467","34.6031374132859","津波避難ビル・水害時避難ビル"
"市営長吉長原東住宅15号館","防災関連施設 - 津波避難ビル・水害時避難ビル","平野区","長吉六反3-8","","24時間","指定緊急避難場所","洪水","135.581365830263","34.6031272104347","津波避難ビル・水害時避難ビル"
"市営長吉長原東住宅16号館","防災関連施設 - 津波避難ビル・水害時避難ビル","平野区","長吉六反3-11","","24時間","指定緊急避難場所","洪水","135.580417414169","34.602603151419","津波避難ビル・水害時避難ビル"
"市営瓜破東第2住宅1号館","防災関連施設 - 津波避難ビル・水害時避難ビル","平野区","瓜破東2-6","","24時間","指定緊急避難場所","洪水","135.562836596184","34.6064232247508","津波避難ビル・水害時避難ビル"
"市営瓜破東第2住宅2号館","防災関連施設 - 津波避難ビル・水害時避難ビル","平野区","瓜破東4-5","","24時間","指定緊急避難場所","洪水","135.563420394863","34.6059065158313","津波避難ビル・水害時避難ビル"
"市営瓜破東第2住宅3号館","防災関連施設 - 津波避難ビル・水害時避難ビル","平野区","瓜破東4-5","","24時間","指定緊急避難場所","洪水","135.564091407393","34.605805897983","津波避難ビル・水害時避難ビル"
"市営瓜破東第2住宅4号館","防災関連施設 - 津波避難ビル・水害時避難ビル","平野区","瓜破東4-5","","24時間","指定緊急避難場所","洪水","135.563982008202","34.6053566118337","津波避難ビル・水害時避難ビル"
"市営瓜破東第2住宅5号館","防災関連施設 - 津波避難ビル・水害時避難ビル","平野区","瓜破東2-7","","24時間","指定緊急避難場所","洪水","135.563420917325","34.6066608036982","津波避難ビル・水害時避難ビル"
"市営瓜破東第2住宅26号館","防災関連施設 - 津波避難ビル・水害時避難ビル","平野区","瓜破東2-7","","24時間","指定緊急避難場所","洪水","135.564532520196","34.6069296976322","津波避難ビル・水害時避難ビル"
"市営西今里住宅1号館","防災関連施設 - 津波避難ビル・水害時避難ビル","東成区","東中本2-7-16","","24時間","指定緊急避難場所","洪水","135.546373627715","34.6795621503809","津波避難ビル・水害時避難ビル"
"市営生野東住宅1号館","防災関連施設 - 津波避難ビル・水害時避難ビル","生野区","生野東1-1-30","","24時間","指定緊急避難場所","洪水","135.531118485786","34.6503951225373","津波避難ビル・水害時避難ビル"
"市営生野東住宅2号館","防災関連施設 - 津波避難ビル・水害時避難ビル","生野区","生野東1-5","","24時間","指定緊急避難場所","洪水","135.531871695879","34.6507516987109","津波避難ビル・水害時避難ビル"
"市営生野東住宅8号館","防災関連施設 - 津波避難ビル・水害時避難ビル","生野区","生野東4-2","","24時間","指定緊急避難場所","洪水","135.534688618456","34.6482628496188","津波避難ビル・水害時避難ビル"
"市営生野東住宅9号館","防災関連施設 - 津波避難ビル・水害時避難ビル","生野区","生野東4-1","","24時間","指定緊急避難場所","洪水","135.534111070929","34.6481793908827","津波避難ビル・水害時避難ビル"
"市営生野東住宅11号館","防災関連施設 - 津波避難ビル・水害時避難ビル","生野区","生野東4-1","","24時間","指定緊急避難場所","洪水","135.533131623206","34.6477670061318","津波避難ビル・水害時避難ビル"
"市営生野東住宅12号館","防災関連施設 - 津波避難ビル・水害時避難ビル","生野区","生野東4-1","","24時間","指定緊急避難場所","洪水","135.533876357806","34.6470409979945","津波避難ビル・水害時避難ビル"
"市営巽北住宅1号館","防災関連施設 - 津波避難ビル・水害時避難ビル","生野区","巽北2-16-15","","24時間","指定緊急避難場所","洪水","135.552090968178","34.6535600747159","津波避難ビル・水害時避難ビル"
"市営勝山南住宅1号館","防災関連施設 - 津波避難ビル・水害時避難ビル","生野区","勝山南3-11","","24時間","指定緊急避難場所","洪水","135.533840329782","34.6526277288046","津波避難ビル・水害時避難ビル"
"市営田島住宅1号館","防災関連施設 - 津波避難ビル・水害時避難ビル","生野区","舎利寺2-12-20","","24時間","指定緊急避難場所","洪水","135.538589131075","34.64853646881","津波避難ビル・水害時避難ビル"
"市営高殿西住宅8号館","防災関連施設 - 津波避難ビル・水害時避難ビル","旭区","高殿5-2","","24時間","指定緊急避難場所","津波、洪水","135.539611330357","34.7170074490381","津波避難ビル・水害時避難ビル"
"市営城北住宅12号館","防災関連施設 - 津波避難ビル・水害時避難ビル","旭区","大宮5-8","","24時間","指定緊急避難場所","津波、洪水","135.546197129621","34.7297626838145","津波避難ビル・水害時避難ビル"
"市営城北住宅13号館","防災関連施設 - 津波避難ビル・水害時避難ビル","旭区","大宮5-1","","24時間","指定緊急避難場所","津波、洪水","135.546271456425","34.7293634773158","津波避難ビル・水害時避難ビル"
"市営城北住宅14号館","防災関連施設 - 津波避難ビル・水害時避難ビル","旭区","大宮5-2","","24時間","指定緊急避難場所","津波、洪水","135.547607283164","34.7295088908811","津波避難ビル・水害時避難ビル"
"市営城北中宮住宅1号館","防災関連施設 - 津波避難ビル・水害時避難ビル","旭区","中宮5-1-1","","24時間","指定緊急避難場所","津波、洪水","135.540769746574","34.7286000667372","津波避難ビル・水害時避難ビル"
"市営橋寺住宅1号館","防災関連施設 - 津波避難ビル・水害時避難ビル","旭区","太子橋3-8-1","","24時間","指定緊急避難場所","津波、洪水","135.558716410307","34.7393899586051","津波避難ビル・水害時避難ビル"
"市営今福南住宅1号館","防災関連施設 - 津波避難ビル・水害時避難ビル","城東区","今福南4-11","","24時間","指定緊急避難場所","津波、洪水","135.554402283169","34.6984886333956","津波避難ビル・水害時避難ビル"
"市営今福南住宅2号館","防災関連施設 - 津波避難ビル・水害時避難ビル","城東区","今福南4-11","","24時間","指定緊急避難場所","津波、洪水","135.555033178596","34.698583271169","津波避難ビル・水害時避難ビル"
"市営今福南住宅3号館","防災関連施設 - 津波避難ビル・水害時避難ビル","城東区","今福南4-10","","24時間","指定緊急避難場所","津波、洪水","135.555714675898","34.6986499811304","津波避難ビル・水害時避難ビル"
"市営今福南住宅4号館","防災関連施設 - 津波避難ビル・水害時避難ビル","城東区","今福南4-10","","24時間","指定緊急避難場所","津波、洪水","135.556431812892","34.6987638036503","津波避難ビル・水害時避難ビル"
"市営今福南第2住宅3号館","防災関連施設 - 津波避難ビル・水害時避難ビル","城東区","今福南4-6-37","","24時間","指定緊急避難場所","津波、洪水","135.559646278322","34.6979258614419","津波避難ビル・水害時避難ビル"
"市営茨田大宮16号館","防災関連施設 - 津波避難ビル・水害時避難ビル","鶴見区","茨田大宮4-34","","24時間","指定緊急避難場所","津波、洪水","135.597818347196","34.7141198827852","津波避難ビル・水害時避難ビル"
"市営放出東住宅2号館","防災関連施設 - 津波避難ビル・水害時避難ビル","鶴見区","放出東3-2","","24時間","指定緊急避難場所","津波、洪水","135.560122077403","34.6902847706548","津波避難ビル・水害時避難ビル"
"市営放出東住宅3号館","防災関連施設 - 津波避難ビル・水害時避難ビル","鶴見区","放出東2-5","","24時間","指定緊急避難場所","津波、洪水","135.560211542551","34.6910007663448","津波避難ビル・水害時避難ビル"
"市営放出東住宅1号館","防災関連施設 - 津波避難ビル・水害時避難ビル","鶴見区","放出東3-2","","24時間","指定緊急避難場所","津波、洪水","135.559694403043","34.6896058946828","津波避難ビル・水害時避難ビル"
"市営諸口第2住宅6号館","防災関連施設 - 津波避難ビル・水害時避難ビル","鶴見区","諸口6-6-6","","24時間","指定緊急避難場所","津波、洪水","135.577690638284","34.7069949747197","津波避難ビル・水害時避難ビル"
"市営焼野住宅1号館","防災関連施設 - 津波避難ビル・水害時避難ビル","鶴見区","焼野1-1-1","","24時間","指定緊急避難場所","津波、洪水","135.58337299662","34.7166455169966","津波避難ビル・水害時避難ビル"
"市営焼野住宅2号館","防災関連施設 - 津波避難ビル・水害時避難ビル","鶴見区","焼野1-1-2","","24時間","指定緊急避難場所","津波、洪水","135.583198579966","34.7174101828489","津波避難ビル・水害時避難ビル"
"市営焼野住宅3号館","防災関連施設 - 津波避難ビル・水害時避難ビル","鶴見区","焼野1-1-3","","24時間","指定緊急避難場所","津波、洪水","135.583742833823","34.7172497722645","津波避難ビル・水害時避難ビル"
"住之江下水処理場砂ろ過池棟屋上部","防災関連施設 - 津波避難ビル・水害時避難ビル","住之江区","泉1-1-189","","24時間","指定緊急避難場所","津波、洪水","135.468247051266","34.6142070192112","津波避難ビル・水害時避難ビル"
"市営御崎住宅4号館","防災関連施設 - 津波避難ビル・水害時避難ビル","住之江区","御崎4-11","","24時間","指定緊急避難場所","津波、洪水","135.476915605311","34.6094139735143","津波避難ビル・水害時避難ビル"
"市営御崎住宅5号館","防災関連施設 - 津波避難ビル・水害時避難ビル","住之江区","御崎4-9","","24時間","指定緊急避難場所","津波、洪水","135.477237006984","34.6098446990772","津波避難ビル・水害時避難ビル"
"市営御崎住宅10号館","防災関連施設 - 津波避難ビル・水害時避難ビル","住之江区","御崎2-8","","24時間","指定緊急避難場所","津波、洪水","135.477823136118","34.6124816157951","津波避難ビル・水害時避難ビル"
"市営南港中住宅21号館","防災関連施設 - 津波避難ビル・水害時避難ビル","住之江区","南港中2-5","","24時間","指定緊急避難場所","津波、洪水","135.429727906278","34.6282125947795","津波避難ビル・水害時避難ビル"
"市営南港中住宅31号館","防災関連施設 - 津波避難ビル・水害時避難ビル","住之江区","南港中2-8","","24時間","指定緊急避難場所","津波、洪水","135.426989577834","34.6285167512842","津波避難ビル・水害時避難ビル"
"市営東加賀屋住宅1号館","防災関連施設 - 津波避難ビル・水害時避難ビル","住之江区","東加賀屋1-4","","24時間","指定緊急避難場所","津波、洪水","135.48399588389","34.6188142026985","津波避難ビル・水害時避難ビル"
"市営東加賀屋住宅2号館","防災関連施設 - 津波避難ビル・水害時避難ビル","住之江区","東加賀屋1-5","","24時間","指定緊急避難場所","津波、洪水","135.484192297311","34.61922236582","津波避難ビル・水害時避難ビル"
"市営平林南第2住宅1号館","防災関連施設 - 津波避難ビル・水害時避難ビル","住之江区","平林2-3","","24時間","指定緊急避難場所","津波、洪水","135.457969900434","34.6089154588048","津波避難ビル・水害時避難ビル"
"市営北加賀屋第5住宅1号館","防災関連施設 - 津波避難ビル・水害時避難ビル","住之江区","北加賀屋5-6","","24時間","指定緊急避難場所","津波、洪水","135.473457344259","34.6216488663642","津波避難ビル・水害時避難ビル"
"市営山之内住宅6号館","防災関連施設 - 津波避難ビル・水害時避難ビル","住吉区","山之内4-7","","24時間","指定緊急避難場所","津波、洪水","135.501109789757","34.5892461594995","津波避難ビル・水害時避難ビル"
"市営長居1丁目住宅1号館","防災関連施設 - 津波避難ビル・水害時避難ビル","住吉区","長居1-14-1","","24時間","指定緊急避難場所","津波、洪水","135.513235689533","34.6141309876509","津波避難ビル・水害時避難ビル"
"市営清水丘住宅1号館","防災関連施設 - 津波避難ビル・水害時避難ビル","住吉区","清水丘3-5-1","","24時間","指定緊急避難場所","津波、洪水","135.49059887341","34.5968926873088","津波避難ビル・水害時避難ビル"
"市営清水丘住宅2号館","防災関連施設 - 津波避難ビル・水害時避難ビル","住吉区","清水丘3-4-2","","24時間","指定緊急避難場所","津波、洪水","135.490838436075","34.5973946261058","津波避難ビル・水害時避難ビル"
"市営遠里小野第2住宅1号館","防災関連施設 - 津波避難ビル・水害時避難ビル","住吉区","遠里小野7-6-29","","24時間","指定緊急避難場所","津波、洪水","135.49229235645","34.5964305125403","津波避難ビル・水害時避難ビル"
"市営苅田南住宅1号館","防災関連施設 - 津波避難ビル・水害時避難ビル","住吉区","苅田9-10-1","","24時間","指定緊急避難場所","津波、洪水","135.513952461402","34.5955707419279","津波避難ビル・水害時避難ビル"
"市営苅田南住宅2号館","防災関連施設 - 津波避難ビル・水害時避難ビル","住吉区","苅田9-10-2","","24時間","指定緊急避難場所","津波、洪水","135.514519909118","34.5953415530488","津波避難ビル・水害時避難ビル"
"市営苅田南住宅3号館","防災関連施設 - 津波避難ビル・水害時避難ビル","住吉区","苅田9-10-3","","24時間","指定緊急避難場所","津波、洪水","135.514132566864","34.595064181725","津波避難ビル・水害時避難ビル"
"市営公園南矢田住宅2号館","防災関連施設 - 津波避難ビル・水害時避難ビル","東住吉区","公園南矢田4-6","","24時間","指定緊急避難場所","洪水","135.522953531657","34.5963688327959","津波避難ビル・水害時避難ビル"
"市営長居東住宅1号館","防災関連施設 - 津波避難ビル・水害時避難ビル","東住吉区","矢田1-15","","24時間","指定緊急避難場所","洪水","135.528270056567","34.6084521047305","津波避難ビル・水害時避難ビル"
"市営長居東住宅2号館","防災関連施設 - 津波避難ビル・水害時避難ビル","東住吉区","矢田1-14","","24時間","指定緊急避難場所","洪水","135.528322035004","34.6080046194611","津波避難ビル・水害時避難ビル"
"市営長居東住宅3号館","防災関連施設 - 津波避難ビル・水害時避難ビル","東住吉区","矢田1-13","","24時間","指定緊急避難場所","洪水","135.528294146635","34.6075568163668","津波避難ビル・水害時避難ビル"
"市営矢田中住宅1号館","防災関連施設 - 津波避難ビル・水害時避難ビル","東住吉区","矢田6-11","","24時間","指定緊急避難場所","洪水","135.531631341495","34.6005779492224","津波避難ビル・水害時避難ビル"
"市営矢田中住宅2号館","防災関連施設 - 津波避難ビル・水害時避難ビル","東住吉区","矢田6-11-2","","24時間","指定緊急避難場所","洪水","135.531732466253","34.6002218664759","津波避難ビル・水害時避難ビル"
"市営矢田中住宅3号館","防災関連施設 - 津波避難ビル・水害時避難ビル","東住吉区","矢田6-10-3","","24時間","指定緊急避難場所","洪水","135.531222096161","34.6000609954935","津波避難ビル・水害時避難ビル"
"市営矢田部住宅1号館","防災関連施設 - 津波避難ビル・水害時避難ビル","東住吉区","公園南矢田1-18-20","","24時間","指定緊急避難場所","洪水","135.525929773591","34.6088510710487","津波避難ビル・水害時避難ビル"
"市営矢田部住宅2号館","防災関連施設 - 津波避難ビル・水害時避難ビル","東住吉区","公園南矢田1-32-2","","24時間","指定緊急避難場所","洪水","135.52655580704","34.6088663846981","津波避難ビル・水害時避難ビル"
"市営矢田部住宅3号館","防災関連施設 - 津波避難ビル・水害時避難ビル","東住吉区","公園南矢田1-31-3","","24時間","指定緊急避難場所","洪水","135.526547469078","34.6084969993199","津波避難ビル・水害時避難ビル"
"市営矢田部住宅4号館","防災関連施設 - 津波避難ビル・水害時避難ビル","東住吉区","公園南矢田1-30-4","","24時間","指定緊急避難場所","洪水","135.526560585162","34.608024626302","津波避難ビル・水害時避難ビル"
"市営矢田部住宅15号館","防災関連施設 - 津波避難ビル・水害時避難ビル","東住吉区","公園南矢田1-12-15","","24時間","指定緊急避難場所","洪水","135.524622786196","34.6074716534013","津波避難ビル・水害時避難ビル"
"市営矢田部住宅16号館","防災関連施設 - 津波避難ビル・水害時避難ビル","東住吉区","公園南矢田1-12-16","","24時間","指定緊急避難場所","洪水","135.524625307321","34.6070292959826","津波避難ビル・水害時避難ビル"
"市営矢田部住宅17号館","防災関連施設 - 津波避難ビル・水害時避難ビル","東住吉区","公園南矢田1-23-17","","24時間","指定緊急避難場所","洪水","135.525786234438","34.606565680912","津波避難ビル・水害時避難ビル"
"市営松之宮住宅4号館","防災関連施設 - 津波避難ビル・水害時避難ビル","西成区","旭3-2","","24時間","指定緊急避難場所","津波、洪水","135.489147864755","34.6450314642078","津波避難ビル・水害時避難ビル"
"市営中津守住宅1号館","防災関連施設 - 津波避難ビル・水害時避難ビル","西成区","津守3-1","","24時間","指定緊急避難場所","津波、洪水","135.484060828151","34.6393655716337","津波避難ビル・水害時避難ビル"
"市営中津守住宅2号館","防災関連施設 - 津波避難ビル・水害時避難ビル","西成区","津守3-1","","24時間","指定緊急避難場所","津波、洪水","135.48350873356","34.6394913669446","津波避難ビル・水害時避難ビル"
"市営南津守第1住宅1号館","防災関連施設 - 津波避難ビル・水害時避難ビル","西成区","南津守2-2","","24時間","指定緊急避難場所","津波、洪水","135.481123109827","34.6326351487459","津波避難ビル・水害時避難ビル"
"市営南津守第1住宅2号館","防災関連施設 - 津波避難ビル・水害時避難ビル","西成区","南津守2-2","","24時間","指定緊急避難場所","津波、洪水","135.481611572854","34.6325852804996","津波避難ビル・水害時避難ビル"
"市営北江口第3住宅1号館","防災関連施設 - 津波避難ビル・水害時避難ビル","東淀川区","北江口1-5-1","","24時間","指定緊急避難場所","洪水","135.541166269038","34.7598959917379","津波避難ビル・水害時避難ビル"
"市営井高野住宅1号館","防災関連施設 - 津波避難ビル・水害時避難ビル","東淀川区","井高野1-4","","24時間","指定緊急避難場所","洪水","135.543988417151","34.7628518445726","津波避難ビル・水害時避難ビル"
"市営井高野住宅2号館","防災関連施設 - 津波避難ビル・水害時避難ビル","東淀川区","井高野1-4","","24時間","指定緊急避難場所","洪水","135.543443723291","34.7632282525834","津波避難ビル・水害時避難ビル"
"市営井高野住宅3号館","防災関連施設 - 津波避難ビル・水害時避難ビル","東淀川区","井高野1-4","","24時間","指定緊急避難場所","洪水","135.542853255191","34.7634120613829","津波避難ビル・水害時避難ビル"
"市営井高野住宅4号館","防災関連施設 - 津波避難ビル・水害時避難ビル","東淀川区","井高野1-4","","24時間","指定緊急避難場所","洪水","135.542240256043","34.7634322056783","津波避難ビル・水害時避難ビル"
"市営井高野住宅6号館","防災関連施設 - 津波避難ビル・水害時避難ビル","東淀川区","井高野1-4","","24時間","指定緊急避難場所","洪水","135.542846126583","34.7639957459462","津波避難ビル・水害時避難ビル"
"市営井高野住宅7号館","防災関連施設 - 津波避難ビル・水害時避難ビル","東淀川区","井高野1-4","","24時間","指定緊急避難場所","洪水","135.543870664041","34.7636788621377","津波避難ビル・水害時避難ビル"
"市営井高野住宅9号館","防災関連施設 - 津波避難ビル・水害時避難ビル","東淀川区","井高野1-4","","24時間","指定緊急避難場所","洪水","135.544583096032","34.7633223267433","津波避難ビル・水害時避難ビル"
"市営井高野第6住宅2号館","防災関連施設 - 津波避難ビル・水害時避難ビル","東淀川区","井高野3-7-2","","24時間","指定緊急避難場所","洪水","135.545898592231","34.7627392463127","津波避難ビル・水害時避難ビル"
"市営井高野第6住宅3号館","防災関連施設 - 津波避難ビル・水害時避難ビル","東淀川区","井高野3-7-3","","24時間","指定緊急避難場所","洪水","135.546500769927","34.7625554753046","津波避難ビル・水害時避難ビル"
"市営井高野第6住宅7号館","防災関連施設 - 津波避難ビル・水害時避難ビル","東淀川区","井高野3-6-7","","24時間","指定緊急避難場所","洪水","135.545613004025","34.7635656486229","津波避難ビル・水害時避難ビル"
"市営井高野第6住宅8号館","防災関連施設 - 津波避難ビル・水害時避難ビル","東淀川区","井高野3-9-8","","24時間","指定緊急避難場所","洪水","135.546078642304","34.7633653234634","津波避難ビル・水害時避難ビル"
"市営井高野第6住宅9号館","防災関連施設 - 津波避難ビル・水害時避難ビル","東淀川区","井高野3-9-9","","24時間","指定緊急避難場所","洪水","135.546665150706","34.7631911122552","津波避難ビル・水害時避難ビル"
"市営井高野第6住宅10号館","防災関連施設 - 津波避難ビル・水害時避難ビル","東淀川区","井高野3-10-10","","24時間","指定緊急避難場所","洪水","135.546814817724","34.7636631352437","津波避難ビル・水害時避難ビル"
"市営井高野第6住宅11号館","防災関連施設 - 津波避難ビル・水害時避難ビル","東淀川区","井高野3-10-11","","24時間","指定緊急避難場所","洪水","135.546326127441","34.7637960173355","津波避難ビル・水害時避難ビル"
"市営井高野第6住宅12号館","防災関連施設 - 津波避難ビル・水害時避難ビル","東淀川区","井高野3-5-12","","24時間","指定緊急避難場所","洪水","135.545821428126","34.7639993980449","津波避難ビル・水害時避難ビル"
"市営井高野第6住宅13号館","防災関連施設 - 津波避難ビル・水害時避難ビル","東淀川区","井高野1-30-13","","24時間","指定緊急避難場所","洪水","135.545166046567","34.7624927648841","津波避難ビル・水害時避難ビル"
"市営井高野第6住宅14号館","防災関連施設 - 津波避難ビル・水害時避難ビル","東淀川区","井高野1-30-14","","24時間","指定緊急避難場所","洪水","135.545308178901","34.762201444468","津波避難ビル・水害時避難ビル"
"市営井高野第6住宅15号館","防災関連施設 - 津波避難ビル・水害時避難ビル","東淀川区","井高野1-30-15","","24時間","指定緊急避難場所","洪水","135.545624846856","34.762116028579","津波避難ビル・水害時避難ビル"
"市営井高野第6住宅16号館","防災関連施設 - 津波避難ビル・水害時避難ビル","東淀川区","井高野1-30-16","","24時間","指定緊急避難場所","洪水","135.546018724393","34.7621880580704","津波避難ビル・水害時避難ビル"
"市営井高野第6住宅17号館","防災関連施設 - 津波避難ビル・水害時避難ビル","東淀川区","井高野3-5-17","","24時間","指定緊急避難場所","洪水","135.546045376783","34.7644492426298","津波避難ビル・水害時避難ビル"
"市営井高野第6住宅18号館","防災関連施設 - 津波避難ビル・水害時避難ビル","東淀川区","井高野3-10-18","","24時間","指定緊急避難場所","洪水","135.546596972307","34.7642364166635","津波避難ビル・水害時避難ビル"
"市営井高野第6住宅19号館","防災関連施設 - 津波避難ビル・水害時避難ビル","東淀川区","井高野3-11-19","","24時間","指定緊急避難場所","洪水","135.54681668636","34.7647503856902","津波避難ビル・水害時避難ビル"
"市営井高野第6住宅20号館","防災関連施設 - 津波避難ビル・水害時避難ビル","東淀川区","井高野3-11-20","","24時間","指定緊急避難場所","洪水","135.547299993399","34.7648900948437","津波避難ビル・水害時避難ビル"
"市営井高野第6住宅21号館","防災関連施設 - 津波避難ビル・水害時避難ビル","東淀川区","井高野3-11-21","","24時間","指定緊急避難場所","洪水","135.548254990398","34.7655141522923","津波避難ビル・水害時避難ビル"
"市営東淡路第2住宅5号館","防災関連施設 - 津波避難ビル・水害時避難ビル","東淀川区","東淡路2-4","","24時間","指定緊急避難場所","洪水","135.516539590114","34.7355865924457","津波避難ビル・水害時避難ビル"
"市営東淡路第3住宅1号館","防災関連施設 - 津波避難ビル・水害時避難ビル","東淀川区","東淡路4-15","","24時間","指定緊急避難場所","洪水","135.516630628691","34.7380026168193","津波避難ビル・水害時避難ビル"
"市営大道南住宅1号館","防災関連施設 - 津波避難ビル・水害時避難ビル","東淀川区","大道南1-8","","24時間","指定緊急避難場所","洪水","135.548321740708","34.7429239398625","津波避難ビル・水害時避難ビル"
"市営大道南住宅2号館","防災関連施設 - 津波避難ビル・水害時避難ビル","東淀川区","大道南1-8","","24時間","指定緊急避難場所","洪水","135.548175825609","34.7422251853821","津波避難ビル・水害時避難ビル"
"市営大道南住宅3号館","防災関連施設 - 津波避難ビル・水害時避難ビル","東淀川区","大道南1-8","","24時間","指定緊急避難場所","洪水","135.547867441737","34.7418088001296","津波避難ビル・水害時避難ビル"
"市営南方住宅3号館","防災関連施設 - 津波避難ビル・水害時避難ビル","東淀川区","東中島2-6","","24時間","指定緊急避難場所","洪水","135.506097174034","34.7277544071496","津波避難ビル・水害時避難ビル"
"市営南方住宅4号館","防災関連施設 - 津波避難ビル・水害時避難ビル","東淀川区","東中島2-12","","24時間","指定緊急避難場所","洪水","135.503801555029","34.7293556383233","津波避難ビル・水害時避難ビル"
"市営南方住宅5号館","防災関連施設 - 津波避難ビル・水害時避難ビル","東淀川区","東中島2-13","","24時間","指定緊急避難場所","洪水","135.504893282587","34.7295640813326","津波避難ビル・水害時避難ビル"
"市営飛鳥住宅3号館","防災関連施設 - 津波避難ビル・水害時避難ビル","東淀川区","東中島3-11","","24時間","指定緊急避難場所","洪水","135.507975001445","34.7297734107894","津波避難ビル・水害時避難ビル"
"市営飛鳥住宅4号館","防災関連施設 - 津波避難ビル・水害時避難ビル","東淀川区","東中島3-11","","24時間","指定緊急避難場所","洪水","135.507658326163","34.7303054057321","津波避難ビル・水害時避難ビル"
"市営飛鳥住宅5号館","防災関連施設 - 津波避難ビル・水害時避難ビル","東淀川区","東中島3-11","","24時間","指定緊急避難場所","洪水","135.507438988288","34.7298428238249","津波避難ビル・水害時避難ビル"
"市営日之出住宅11号館","防災関連施設 - 津波避難ビル・水害時避難ビル","東淀川区","淡路1-1","","24時間","指定緊急避難場所","洪水","135.507041497761","34.7355159515947","津波避難ビル・水害時避難ビル"
"市営日之出北住宅1号館","防災関連施設 - 津波避難ビル・水害時避難ビル","東淀川区","西淡路1-10-10","","24時間","指定緊急避難場所","洪水","135.505636198009","34.737427450973","津波避難ビル・水害時避難ビル"
"市営日之出北住宅2号館","防災関連施設 - 津波避難ビル・水害時避難ビル","東淀川区","西淡路1-6","","24時間","指定緊急避難場所","洪水","135.504092402926","34.7371179284905","津波避難ビル・水害時避難ビル"
"市営南江口第2住宅1号館","防災関連施設 - 津波避難ビル・水害時避難ビル","東淀川区","南江口1-2","","24時間","指定緊急避難場所","洪水","135.545720972188","34.7568060422136","津波避難ビル・水害時避難ビル"
"市営南江口第2住宅2号館","防災関連施設 - 津波避難ビル・水害時避難ビル","東淀川区","南江口1-5","","24時間","指定緊急避難場所","洪水","135.545761349439","34.7561727449946","津波避難ビル・水害時避難ビル"
"市営南江口住宅1号館","防災関連施設 - 津波避難ビル・水害時避難ビル","東淀川区","南江口2-2-1","","24時間","指定緊急避難場所","洪水","135.546726068905","34.7567322947393","津波避難ビル・水害時避難ビル"
"市営南江口住宅2号館","防災関連施設 - 津波避難ビル・水害時避難ビル","東淀川区","南江口2-3-2","","24時間","指定緊急避難場所","洪水","135.547771775069","34.7567328110973","津波避難ビル・水害時避難ビル"
"市営北陽住宅1号館","防災関連施設 - 津波避難ビル・水害時避難ビル","東淀川区","西淡路6-2","","24時間","指定緊急避難場所","洪水","135.511753925337","34.7452900071314","津波避難ビル・水害時避難ビル"
"市営北陽住宅2号館","防災関連施設 - 津波避難ビル・水害時避難ビル","東淀川区","西淡路6-2","","24時間","指定緊急避難場所","洪水","135.51123169694","34.744426619402","津波避難ビル・水害時避難ビル"
"市営北陽住宅3号館","防災関連施設 - 津波避難ビル・水害時避難ビル","東淀川区","西淡路6-2","","24時間","指定緊急避難場所","洪水","135.511026995551","34.7449179626047","津波避難ビル・水害時避難ビル"
"市営西淡路住宅4号館","防災関連施設 - 津波避難ビル・水害時避難ビル","東淀川区","西淡路6-5-4","","24時間","指定緊急避難場所","洪水","135.512513597606","34.7461837681591","津波避難ビル・水害時避難ビル"
"市営淡路住宅1号館","防災関連施設 - 津波避難ビル・水害時避難ビル","東淀川区","西淡路5-9-1","","24時間","指定緊急避難場所","洪水","135.512601588932","34.7436724602568","津波避難ビル・水害時避難ビル"
"市営菅原第3住宅1号館","防災関連施設 - 津波避難ビル・水害時避難ビル","東淀川区","菅原1-6-1","","24時間","指定緊急避難場所","洪水","135.528503526743","34.7362683111526","津波避難ビル・水害時避難ビル"
"市営菅原第3住宅2号館","防災関連施設 - 津波避難ビル・水害時避難ビル","東淀川区","菅原1-6-2","","24時間","指定緊急避難場所","洪水","135.529157071429","34.736415746672","津波避難ビル・水害時避難ビル"
"市営菅原第3住宅3号館","防災関連施設 - 津波避難ビル・水害時避難ビル","東淀川区","菅原2-1-3","","24時間","指定緊急避難場所","洪水","135.529797544989","34.7364767372942","津波避難ビル・水害時避難ビル"
"市営豊新住宅1号館","防災関連施設 - 津波避難ビル・水害時避難ビル","東淀川区","豊新5-12-1","","24時間","指定緊急避難場所","洪水","135.537026334628","34.7475156475668","津波避難ビル・水害時避難ビル"
"市営豊新住宅2号館","防災関連施設 - 津波避難ビル・水害時避難ビル","東淀川区","豊新5-12-2","","24時間","指定緊急避難場所","洪水","135.537160620121","34.747192338912","津波避難ビル・水害時避難ビル"
"市営下新庄4丁目住宅1号館","防災関連施設 - 津波避難ビル・水害時避難ビル","東淀川区","下新庄4-16-1","","24時間","指定緊急避難場所","洪水","135.516493564369","34.7465447731814","津波避難ビル・水害時避難ビル"
"市営下新庄4丁目住宅2号館","防災関連施設 - 津波避難ビル・水害時避難ビル","東淀川区","下新庄4-16-2","","24時間","指定緊急避難場所","洪水","135.516700464391","34.7461398923873","津波避難ビル・水害時避難ビル"
"井高野ゴルフセンター","防災関連施設 - 津波避難ビル・水害時避難ビル","東淀川区","井高野4-7-85","","24時間","指定緊急避難場所","洪水","135.550392298886","34.7649993834204","津波避難ビル・水害時避難ビル"
"極東エンジニアリング株式会社","防災関連施設 - 津波避難ビル・水害時避難ビル","東淀川区","上新庄3-16-11","","24時間","指定緊急避難場所","洪水","135.531224271819","34.7510968030322","津波避難ビル・水害時避難ビル"
"アベニュー小松ビル","防災関連施設 - 津波避難ビル・水害時避難ビル","東淀川区","小松1-3-15","","24時間","指定緊急避難場所","洪水","135.534113675232","34.751285017813","津波避難ビル・水害時避難ビル"
"アカシヤ淡路店","防災関連施設 - 津波避難ビル・水害時避難ビル","東淀川区","東淡路4-33-34","","24時間","指定緊急避難場所","洪水","135.518219904711","34.7398909864353","津波避難ビル・水害時避難ビル"
"新大阪ビル東館","防災関連施設 - 津波避難ビル・水害時避難ビル","東淀川区","東中島1-17-18","","24時間","指定緊急避難場所","洪水","135.503287262357","34.7324855031055","津波避難ビル・水害時避難ビル"
"市営大桐住宅1号館","防災関連施設 - 津波避難ビル・水害時避難ビル","東淀川区","大桐1-17","","24時間","指定緊急避難場所","洪水","135.546803932733","34.7457886195968","津波避難ビル・水害時避難ビル"
"市営大桐住宅3号館","防災関連施設 - 津波避難ビル・水害時避難ビル","東淀川区","大桐3-1","","24時間","指定緊急避難場所","洪水","135.547943141135","34.7460941983296","津波避難ビル・水害時避難ビル"
"市営大桐住宅5号館","防災関連施設 - 津波避難ビル・水害時避難ビル","東淀川区","大桐3-3","","24時間","指定緊急避難場所","洪水","135.547480625904","34.7468500212724","津波避難ビル・水害時避難ビル"
"市営大桐住宅6号館","防災関連施設 - 津波避難ビル・水害時避難ビル","東淀川区","大桐3-5","","24時間","指定緊急避難場所","洪水","135.547532979027","34.7475240519037","津波避難ビル・水害時避難ビル"
"市営豊里住宅1号館","防災関連施設 - 津波避難ビル・水害時避難ビル","東淀川区","豊里5-15","","24時間","指定緊急避難場所","洪水","135.543480069369","34.7401261249417","津波避難ビル・水害時避難ビル"
"市営豊里住宅2号館","防災関連施設 - 津波避難ビル・水害時避難ビル","東淀川区","豊里5-15","","24時間","指定緊急避難場所","洪水","135.544080812038","34.741134784997","津波避難ビル・水害時避難ビル"
"市営豊里住宅3号館","防災関連施設 - 津波避難ビル・水害時避難ビル","東淀川区","豊里5-15","","24時間","指定緊急避難場所","洪水","135.544445350497","34.7405587009102","津波避難ビル・水害時避難ビル"
"市営北江口第2住宅1号館","防災関連施設 - 津波避難ビル・水害時避難ビル","東淀川区","北江口1-3","","24時間","指定緊急避難場所","洪水","135.541921610325","34.7588905177932","津波避難ビル・水害時避難ビル"
"市営北江口第2住宅2号館","防災関連施設 - 津波避難ビル・水害時避難ビル","東淀川区","北江口1-3","","24時間","指定緊急避難場所","洪水","135.542745206528","34.7589622985141","津波避難ビル・水害時避難ビル"
"市営北江口第2住宅3号館","防災関連施設 - 津波避難ビル・水害時避難ビル","東淀川区","北江口1-3","","24時間","指定緊急避難場所","洪水","135.542180650358","34.7595586915762","津波避難ビル・水害時避難ビル"
"市営北江口第2住宅4号館","防災関連施設 - 津波避難ビル・水害時避難ビル","東淀川区","北江口1-4","","24時間","指定緊急避難場所","洪水","135.54252412754","34.760073458384","津波避難ビル・水害時避難ビル"
"市営北江口第2住宅5号館","防災関連施設 - 津波避難ビル・水害時避難ビル","東淀川区","北江口1-4","","24時間","指定緊急避難場所","洪水","135.542537372838","34.7605575500491","津波避難ビル・水害時避難ビル"
"市営北江口第2住宅6号館","防災関連施設 - 津波避難ビル・水害時避難ビル","東淀川区","北江口2-2","","24時間","指定緊急避難場所","洪水","135.543647008477","34.7592894640455","津波避難ビル・水害時避難ビル"
"市営北江口第2住宅7号館","防災関連施設 - 津波避難ビル・水害時避難ビル","東淀川区","北江口2-2","","24時間","指定緊急避難場所","洪水","135.544512971413","34.7596197703111","津波避難ビル・水害時避難ビル"
"市営北江口第2住宅8号館","防災関連施設 - 津波避難ビル・水害時避難ビル","東淀川区","北江口2-3","","24時間","指定緊急避難場所","洪水","135.543944580236","34.7601899866551","津波避難ビル・水害時避難ビル"
"市営北江口第2住宅9号館","防災関連施設 - 津波避難ビル・水害時避難ビル","東淀川区","北江口2-3","","24時間","指定緊急避難場所","洪水","135.54337078605","34.7602957637281","津波避難ビル・水害時避難ビル"
"市営北江口第2住宅10号館","防災関連施設 - 津波避難ビル・水害時避難ビル","東淀川区","北江口3-5","","24時間","指定緊急避難場所","洪水","135.543458319408","34.7610254317473","津波避難ビル・水害時避難ビル"
"市営北江口第2住宅11号館","防災関連施設 - 津波避難ビル・水害時避難ビル","東淀川区","北江口3-5","","24時間","指定緊急避難場所","洪水","135.544498649651","34.7607774941153","津波避難ビル・水害時避難ビル"
"市営北江口第2住宅12号館","防災関連施設 - 津波避難ビル・水害時避難ビル","東淀川区","北江口3-4","","24時間","指定緊急避難場所","洪水","135.545175417524","34.7607702065707","津波避難ビル・水害時避難ビル"
"市営北江口住宅1号館","防災関連施設 - 津波避難ビル・水害時避難ビル","東淀川区","北江口3-3","","24時間","指定緊急避難場所","洪水","135.547126441007","34.7607436272122","津波避難ビル・水害時避難ビル"
"第6新大阪ビル","防災関連施設 - 津波避難ビル・水害時避難ビル","淀川区","西中島6-7-3","","24時間","指定緊急避難場所","津波、洪水","135.496418965362","34.7280649259729","津波避難ビル・水害時避難ビル"
"第8新大阪ビル","防災関連施設 - 津波避難ビル・水害時避難ビル","淀川区","西中島5-7-11","","24時間","指定緊急避難場所","津波、洪水","135.499925243958","34.7296235345374","津波避難ビル・水害時避難ビル"
"第10新大阪ビル","防災関連施設 - 津波避難ビル・水害時避難ビル","淀川区","西中島6-11-25","","24時間","指定緊急避難場所","津波、洪水","135.49492767413","34.7290976603399","津波避難ビル・水害時避難ビル"
"市営加島住宅8号館","防災関連施設 - 津波避難ビル・水害時避難ビル","淀川区","加島1-48-8","","24時間","指定緊急避難場所","津波、洪水","135.459746449673","34.7266233468038","津波避難ビル・水害時避難ビル"
"新大阪南方ビル","防災関連施設 - 津波避難ビル・水害時避難ビル","淀川区","西中島3-14-27","","24時間","指定緊急避難場所","津波、洪水","135.500942052845","34.7261120092689","津波避難ビル・水害時避難ビル"
"市営瑞光住宅1号館","防災関連施設 - 津波避難ビル・水害時避難ビル","東淀川区","瑞光5-3-1","","24時間","指定緊急避難場所","洪水","135.55041569985","34.752253472369","津波避難ビル・水害時避難ビル"
"市営瑞光住宅2号館","防災関連施設 - 津波避難ビル・水害時避難ビル","東淀川区","瑞光5-3-2","","24時間","指定緊急避難場所","洪水","135.551079675303","34.7521832158021","津波避難ビル・水害時避難ビル"
"市営瑞光住宅3号館","防災関連施設 - 津波避難ビル・水害時避難ビル","東淀川区","瑞光5-4-3","","24時間","指定緊急避難場所","洪水","135.551470124746","34.7525845151223","津波避難ビル・水害時避難ビル"
"市営北大桐住宅1号館","防災関連施設 - 津波避難ビル・水害時避難ビル","東淀川区","大桐5-5","","24時間","指定緊急避難場所","洪水","135.548784969513","34.7511296524419","津波避難ビル・水害時避難ビル"
"市営北大桐住宅3号館","防災関連施設 - 津波避難ビル・水害時避難ビル","東淀川区","大桐5-7","","24時間","指定緊急避難場所","洪水","135.549522789336","34.7506961747566","津波避難ビル・水害時避難ビル"
"市営豊里第2住宅17号館","防災関連施設 - 津波避難ビル・水害時避難ビル","東淀川区","豊里7-17","","24時間","指定緊急避難場所","洪水","135.541303685871","34.7439168763016","津波避難ビル・水害時避難ビル"
"市営豊里第2住宅18号館","防災関連施設 - 津波避難ビル・水害時避難ビル","東淀川区","豊里7-14-18","","24時間","指定緊急避難場所","洪水","135.541466526664","34.743467649262","津波避難ビル・水害時避難ビル"
"市営小松南住宅1号館","防災関連施設 - 津波避難ビル・水害時避難ビル","東淀川区","小松5-6-1","","24時間","指定緊急避難場所","洪水","135.547597246065","34.7540111382133","津波避難ビル・水害時避難ビル"
"株式会社川本製作所　大阪支店","防災関連施設 - 津波避難ビル・水害時避難ビル","東淀川区","瑞光3-8-20","","24時間","指定緊急避難場所","洪水","135.544412120139","34.752216925617","津波避難ビル・水害時避難ビル"
"市営柏里第2住宅5号館","防災関連施設 - 津波避難ビル・水害時避難ビル","西淀川区","柏里3-9","","24時間","指定緊急避難場所","津波、洪水","135.466442579602","34.7125593904349","津波避難ビル・水害時避難ビル"
"市営柏里第2住宅6号館","防災関連施設 - 津波避難ビル・水害時避難ビル","西淀川区","柏里3-14","","24時間","指定緊急避難場所","津波、洪水","135.466812225487","34.7134932792853","津波避難ビル・水害時避難ビル"
"市営柏里第2住宅1号館","防災関連施設 - 津波避難ビル・水害時避難ビル","西淀川区","柏里3-16","","24時間","指定緊急避難場所","津波、洪水","135.466030539162","34.7132597024494","津波避難ビル・水害時避難ビル"
"市営御幣島東住宅1号館","防災関連施設 - 津波避難ビル・水害時避難ビル","西淀川区","御幣島3-9","","24時間","指定緊急避難場所","津波、洪水","135.460203247449","34.716848172188","津波避難ビル・水害時避難ビル"
"市営御幣島住宅2号館","防災関連施設 - 津波避難ビル・水害時避難ビル","西淀川区","御幣島6-10","","24時間","指定緊急避難場所","津波、洪水","135.454337185857","34.7211093625531","津波避難ビル・水害時避難ビル"
"市営御幣島住宅5号館","防災関連施設 - 津波避難ビル・水害時避難ビル","西淀川区","御幣島6-8","","24時間","指定緊急避難場所","津波、洪水","135.455327204229","34.7205367693042","津波避難ビル・水害時避難ビル"
"市営御幸住宅1号館","防災関連施設 - 津波避難ビル・水害時避難ビル","都島区","御幸町1-7","","24時間","指定緊急避難場所","津波、洪水","135.534418800991","34.7139015665685","津波避難ビル・水害時避難ビル"
"市営御幸住宅2号館","防災関連施設 - 津波避難ビル・水害時避難ビル","都島区","御幸町1-10","","24時間","指定緊急避難場所","津波、洪水","135.5344669911","34.7142969617166","津波避難ビル・水害時避難ビル"
"市営御幸住宅3号館","防災関連施設 - 津波避難ビル・水害時避難ビル","都島区","御幸町2-5","","24時間","指定緊急避難場所","津波、洪水","135.533591700566","34.7158240907941","津波避難ビル・水害時避難ビル"
"市営秀野西住宅3号館","防災関連施設 - 津波避難ビル・水害時避難ビル","此花区","酉島1-11","","24時間","指定緊急避難場所","津波、洪水","135.444155024411","34.684058230395","津波避難ビル・水害時避難ビル"
"市営秀野西住宅4号館","防災関連施設 - 津波避難ビル・水害時避難ビル","此花区","酉島1-16","","24時間","指定緊急避難場所","津波、洪水","135.443062590706","34.6836845909632","津波避難ビル・水害時避難ビル"
"市営秀野西住宅5号館","防災関連施設 - 津波避難ビル・水害時避難ビル","此花区","酉島1-17","","24時間","指定緊急避難場所","津波、洪水","135.443422045221","34.6832736589087","津波避難ビル・水害時避難ビル"
"リバーガーデンECOシティアリスの森","防災関連施設 - 津波避難ビル・水害時避難ビル","此花区","島屋6-2-110","","24時間","指定緊急避難場所","津波、洪水","135.441053586213","34.6707870640664","津波避難ビル・水害時避難ビル"
"南船場心斎橋ビル","防災関連施設 - 津波避難ビル・水害時避難ビル","中央区","南船場4-7-11","","24時間","指定緊急避難場所","津波、洪水","135.499114559394","34.6768943766222","津波避難ビル・水害時避難ビル"
"市営波除住宅1号館","防災関連施設 - 津波避難ビル・水害時避難ビル","港区","波除2-2-19","","24時間","指定緊急避難場所","津波、洪水","135.46477003669","34.6722735720933","津波避難ビル・水害時避難ビル"
"大正スポーツセンター及び大正屋内プール","防災関連施設 - 津波避難ビル・水害時避難ビル","大正区","小林東3-3-25","","24時間","指定緊急避難場所","津波、洪水","135.472305104501","34.6472426092585","津波避難ビル・水害時避難ビル"
"市営小林住宅1号館","防災関連施設 - 津波避難ビル・水害時避難ビル","大正区","小林東3-22","","24時間","指定緊急避難場所","津波、洪水","135.472948176746","34.6433540830443","津波避難ビル・水害時避難ビル"
"市営小林住宅2号館","防災関連施設 - 津波避難ビル・水害時避難ビル","大正区","平尾4-1","","24時間","指定緊急避難場所","津波、洪水","135.472825169269","34.6428812667416","津波避難ビル・水害時避難ビル"
"東横INN大阪通天閣前","防災関連施設 - 津波避難ビル・水害時避難ビル","浪速区","恵美須東2-3-4","","24時間","指定緊急避難場所","津波、洪水","135.506542125015","34.6516035910184","津波避難ビル・水害時避難ビル"
"男女共同参画センター西部館及びこども文化センター","防災関連施設 - 津波避難ビル・水害時避難ビル","此花区","西九条6-1-20","","24時間","指定緊急避難場所","津波、洪水","135.463338885063","34.6818209428101","津波避難ビル・水害時避難ビル"
"グランシエール都島","防災関連施設 - 津波避難ビル・水害時避難ビル","都島区","都島中通2-10-26","","","","","135.531707919293","34.7041965425136","津波避難ビル・水害時避難ビル"
"ブリランテ都島","防災関連施設 - 津波避難ビル・水害時避難ビル","都島区","都島中通2-10-25","","","","","135.531558058702","34.7041700842392","津波避難ビル・水害時避難ビル"
"クレールソフィア都島","防災関連施設 - 津波避難ビル・水害時避難ビル","都島区","都島中通2-10-24","","","","","135.531419353549","34.7041360509454","津波避難ビル・水害時避難ビル"
"市営大淀北住宅1号館","防災関連施設 - 津波避難ビル・水害時避難ビル","北区","大淀北1-5-19","","24時間","指定緊急避難場所","津波、洪水","135.485545640785","34.7083212085061","津波避難ビル・水害時避難ビル"
"市営中津第3住宅1号館","防災関連施設 - 津波避難ビル・水害時避難ビル","北区","中津6-2-24","","24時間","指定緊急避難場所","津波、洪水","135.491624392713","34.7090915900016","津波避難ビル・水害時避難ビル"
"阪急観光バス株式会社（立体駐車場2階部分）","防災関連施設 - 津波避難ビル・水害時避難ビル","北区","中津7-7-19","","24時間","指定緊急避難場所","津波、洪水","135.487026184196","34.7100305989339","津波避難ビル・水害時避難ビル"
"大阪市立北スポーツセンター","防災関連施設 - 津波避難ビル・水害時避難ビル","北区","中津3-4-27","","24時間","指定緊急避難場所","津波、洪水","135.492652174859","34.7103626134539","津波避難ビル・水害時避難ビル"
"ＪＴ大阪ビル","防災関連施設 - 津波避難ビル・水害時避難ビル","北区","大淀南1-5-10","","24時間","指定緊急避難場所","津波、洪水","135.489701772157","34.7028362524577","津波避難ビル・水害時避難ビル"
"社会福祉法人芙蓉福祉会　介護老人保健施設なごみたいら","防災関連施設 - 津波避難ビル・水害時避難ビル","西淀川区","福町2-11-7","","24時間","指定緊急避難場所","津波、洪水","135.442746525616","34.695414028663","津波避難ビル・水害時避難ビル"
"社会福祉法人芙蓉福祉会　特別養護老人ホーム　水都ホーム福町","防災関連施設 - 津波避難ビル・水害時避難ビル","西淀川区","福町2-11-7","","24時間","指定緊急避難場所","津波、洪水","135.442676708922","34.6952568026756","津波避難ビル・水害時避難ビル"
"社会福祉法人芙蓉福祉会　養護老人ホーム　たいら","防災関連施設 - 津波避難ビル・水害時避難ビル","西淀川区","福町2-11-7","","24時間","指定緊急避難場所","津波、洪水","135.442621299562","34.6951175734497","津波避難ビル・水害時避難ビル"
"アジア太平洋トレードセンター ITM棟","防災関連施設 - 津波避難ビル・水害時避難ビル","住之江区","南港北2-1-10","","24時間","指定緊急避難場所","津波、洪水","135.411227015674","34.6380998505077","津波避難ビル・水害時避難ビル"
"アジア太平洋トレードセンター O’ｓ棟","防災関連施設 - 津波避難ビル・水害時避難ビル","住之江区","南港北2-1-10","","24時間","指定緊急避難場所","津波、洪水","135.41314073348","34.6373500475024","津波避難ビル・水害時避難ビル"
"滝川小学校","防災関連施設 - 津波避難ビル・水害時避難ビル","北区","天満1-24-15","","24時間","指定緊急避難場所","津波、洪水","135.519243005229","34.6962940017873","津波避難ビル・水害時避難ビル"
"堀川小学校","防災関連施設 - 津波避難ビル・水害時避難ビル","北区","東天満2-10-7","","24時間","指定緊急避難場所","津波、洪水","135.513181997863","34.697864003591","津波避難ビル・水害時避難ビル"
"西天満小学校","防災関連施設 - 津波避難ビル・水害時避難ビル","北区","西天満3-12-21","","24時間","指定緊急避難場所","津波、洪水","135.507301994732","34.6966639964274","津波避難ビル・水害時避難ビル"
"菅北小学校","防災関連施設 - 津波避難ビル・水害時避難ビル","北区","菅栄町9-5","","24時間","指定緊急避難場所","津波、洪水","135.513658997606","34.7085359999725","津波避難ビル・水害時避難ビル"
"豊崎東小学校","防災関連施設 - 津波避難ビル・水害時避難ビル","北区","長柄中2-3-30","","24時間","指定緊急避難場所","津波、洪水","135.515541994718","34.7136649967348","津波避難ビル・水害時避難ビル"
"豊崎本庄小学校","防災関連施設 - 津波避難ビル・水害時避難ビル","北区","本庄西2-1-16","","24時間","指定緊急避難場所","津波、洪水","135.506042000423","34.7128800012025","津波避難ビル・水害時避難ビル"
"中津小学校","防災関連施設 - 津波避難ビル・水害時避難ビル","北区","中津3-34-18","","24時間","指定緊急避難場所","津波、洪水","135.493757001857","34.7135500044897","津波避難ビル・水害時避難ビル"
"大淀小学校","防災関連施設 - 津波避難ビル・水害時避難ビル","北区","大淀中4-10-33","","24時間","指定緊急避難場所","津波、洪水","135.482695997972","34.7037250035917","津波避難ビル・水害時避難ビル"
"豊仁小学校","防災関連施設 - 津波避難ビル・水害時避難ビル","北区","長柄西2-6-20","","24時間","指定緊急避難場所","津波、洪水","135.513749997359","34.7169899987448","津波避難ビル・水害時避難ビル"
"豊崎小学校","防災関連施設 - 津波避難ビル・水害時避難ビル","北区","豊崎4-5-9","","24時間","指定緊急避難場所","津波、洪水","135.500371003567","34.7123730048925","津波避難ビル・水害時避難ビル"
"扇町小学校","防災関連施設 - 津波避難ビル・水害時避難ビル","北区","扇町2-7-24","","24時間","指定緊急避難場所","津波、洪水","135.507061003492","34.7045059999668","津波避難ビル・水害時避難ビル"
"北稜中学校","防災関連施設 - 津波避難ビル・水害時避難ビル","北区","天満橋1-1-58","","24時間","指定緊急避難場所","津波、洪水","135.520830995632","34.6985520049776","津波避難ビル・水害時避難ビル"
"大淀中学校","防災関連施設 - 津波避難ビル・水害時避難ビル","北区","大淀中2-1-11","","24時間","指定緊急避難場所","津波、洪水","135.486766999052","34.7037730044019","津波避難ビル・水害時避難ビル"
"豊崎中学校","防災関連施設 - 津波避難ビル・水害時避難ビル","北区","本庄東3-4-8","","24時間","指定緊急避難場所","津波、洪水","135.508965000877","34.7160370025807","津波避難ビル・水害時避難ビル"
"新豊崎中学校","防災関連施設 - 津波避難ビル・水害時避難ビル","北区","長柄東2-2-30","","24時間","指定緊急避難場所","津波、洪水","135.517532003163","34.7134659978009","津波避難ビル・水害時避難ビル"
"天満中学校","防災関連施設 - 津波避難ビル・水害時避難ビル","北区","神山町12-9","","24時間","指定緊急避難場所","津波、洪水","135.506771004413","34.703235001548","津波避難ビル・水害時避難ビル"
"扇町総合高等学校","防災関連施設 - 津波避難ビル・水害時避難ビル","北区","松ヶ枝町1-38","","24時間","指定緊急避難場所","津波、洪水","135.517740994711","34.6991339991305","津波避難ビル・水害時避難ビル"
"市営長柄東住宅2号館","防災関連施設 - 津波避難ビル・水害時避難ビル","北区","長柄東2-5","","24時間","指定緊急避難場所","津波、洪水","135.51752700143","34.7144720032267","津波避難ビル・水害時避難ビル"
"市営長柄東住宅3号館","防災関連施設 - 津波避難ビル・水害時避難ビル","北区","長柄東2-5","","24時間","指定緊急避難場所","津波、洪水","135.517563996387","34.7140930038772","津波避難ビル・水害時避難ビル"
"市営長柄東住宅4号館","防災関連施設 - 津波避難ビル・水害時避難ビル","北区","長柄東2-6","","24時間","指定緊急避難場所","津波、洪水","135.516695003078","34.7139649989807","津波避難ビル・水害時避難ビル"
"市営長柄東住宅5号館","防災関連施設 - 津波避難ビル・水害時避難ビル","北区","長柄東2-6","","24時間","指定緊急避難場所","津波、洪水","135.516662997321","34.714378996231","津波避難ビル・水害時避難ビル"
"市営長柄東住宅6号館","防災関連施設 - 津波避難ビル・水害時避難ビル","北区","長柄東2-6","","24時間","指定緊急避難場所","津波、洪水","135.516979997218","34.7143790002777","津波避難ビル・水害時避難ビル"
"市営扇町住宅1号館","防災関連施設 - 津波避難ビル・水害時避難ビル","北区","扇町2-3","","24時間","指定緊急避難場所","津波、洪水","135.50780099718","34.7051940003077","津波避難ビル・水害時避難ビル"
"市営長柄東第2住宅1号館","防災関連施設 - 津波避難ビル・水害時避難ビル","北区","長柄東2-7","","24時間","指定緊急避難場所","津波、洪水","135.51621299983","34.7153539994653","津波避難ビル・水害時避難ビル"
"市営長柄中住宅1号館","防災関連施設 - 津波避難ビル・水害時避難ビル","北区","長柄中1-2","","24時間","指定緊急避難場所","津波、洪水","135.514146998712","34.7107759966735","津波避難ビル・水害時避難ビル"
"市営長柄中住宅2号館","防災関連施設 - 津波避難ビル・水害時避難ビル","北区","長柄中1-1","","24時間","指定緊急避難場所","津波、洪水","135.515134001867","34.7107410013619","津波避難ビル・水害時避難ビル"
"ボートピア梅田（北大阪堂山ビル）","防災関連施設 - 津波避難ビル・水害時避難ビル","北区","堂山町18-8","","10時～21時","指定緊急避難場所","津波、洪水","135.501974995979","34.7046860033527","津波避難ビル・水害時避難ビル"
"大阪富国生命ビル","防災関連施設 - 津波避難ビル・水害時避難ビル","北区","小松原町2-4","","5時～24時","","津波、洪水","135.500119002989","34.7022830043963","津波避難ビル・水害時避難ビル"
"ＯＡＰタワー","防災関連施設 - 津波避難ビル・水害時避難ビル","北区","天満橋1－8－30","","24時間","","津波、洪水","135.519791002278","34.6999229979915","津波避難ビル・水害時避難ビル"
"兎我野町　聚楽マンション","防災関連施設 - 津波避難ビル・水害時避難ビル","北区","兎我野町9-2","","24時間","指定緊急避難場所","津波、洪水","135.503670997656","34.7002539988378","津波避難ビル・水害時避難ビル"
"グランフロント大阪　北館","防災関連施設 - 津波避難ビル・水害時避難ビル","北区","大深町3-1","","24時間","","津波、洪水","135.494470998624","34.7056169996132","津波避難ビル・水害時避難ビル"
"コープ・ジャペン","防災関連施設 - 津波避難ビル・水害時避難ビル","北区","豊崎2-8-11","","24時間","指定緊急避難場所","津波、洪水","135.500601995149","34.7110189999506","津波避難ビル・水害時避難ビル"
"第10新興ビル","防災関連施設 - 津波避難ビル・水害時避難ビル","北区","浪花町1-23","","6～22時","指定緊急避難場所","津波、洪水","135.510611999623","34.7062249973699","津波避難ビル・水害時避難ビル"
"ブリーゼタワー","防災関連施設 - 津波避難ビル・水害時避難ビル","北区","梅田2-4-9","","7時～24時30分","","津波、洪水","135.493999004108","34.6986969964621","津波避難ビル・水害時避難ビル"
"平成医療学園専門学校　中津第１校舎","防災関連施設 - 津波避難ビル・水害時避難ビル","北区","中津6-10-15","","9時～21時10分","指定緊急避難場所","津波、洪水","135.490822995164","34.709859002716","津波避難ビル・水害時避難ビル"
"平成医療学園専門学校　中津第２校舎","防災関連施設 - 津波避難ビル・水害時避難ビル","北区","中津6-9-38","","9時～21時10分","指定緊急避難場所","津波、洪水","135.490120000564","34.7099999970873","津波避難ビル・水害時避難ビル"
"大阪市立住まい情報センター等　建物","防災関連施設 - 津波避難ビル・水害時避難ビル","北区","天神橋6-4-20","","24時間","指定緊急避難場所","津波、洪水","135.511652186167","34.7103160999469","津波避難ビル・水害時避難ビル"
"（宗）本門佛立宗清風寺","防災関連施設 - 津波避難ビル・水害時避難ビル","北区","大淀南2-5-5","","6～22時","指定緊急避難場所","津波、洪水","135.485053722891","34.7007478263307","津波避難ビル・水害時避難ビル"
"UR賃貸住宅（リバーサイドながら１号棟）","防災関連施設 - 津波避難ビル・水害時避難ビル","北区","長柄東3-2","","24時間","","津波、洪水","135.516271417519","34.7168243326672","津波避難ビル・水害時避難ビル"
"UR賃貸住宅（リバーサイドほんじょう）２号棟","防災関連施設 - 津波避難ビル・水害時避難ビル","北区","本庄東3-8-2","","24時間","","津波、洪水","135.50805548203","34.7162948778825","津波避難ビル・水害時避難ビル"
"UR賃貸住宅（さざなみプラザ・２３号棟）","防災関連施設 - 津波避難ビル・水害時避難ビル","北区","長柄東2-1","","24時間","","津波、洪水","135.51920101115","34.7137215730281","津波避難ビル・水害時避難ビル"
"UR賃貸住宅（さざなみプラザ第２・２３号棟）","防災関連施設 - 津波避難ビル・水害時避難ビル","北区","長柄東1-4","","24時間","","津波、洪水","135.517613468039","34.7115669935963","津波避難ビル・水害時避難ビル"
"UR賃貸住宅（さざなみプラザ第３・２１号棟）","防災関連施設 - 津波避難ビル・水害時避難ビル","北区","長柄東1-5","","24時間","","津波、洪水","135.519057078403","34.7114958110515","津波避難ビル・水害時避難ビル"
"UR賃貸住宅（さざなみプラザ第４・２６号棟）","防災関連施設 - 津波避難ビル・水害時避難ビル","北区","長柄東1-4","","24時間","","津波、洪水","135.516713259817","34.711620437445","津波避難ビル・水害時避難ビル"
"UR賃貸住宅（さざなみプラザ第５・３１号棟）","防災関連施設 - 津波避難ビル・水害時避難ビル","北区","国分寺1-2","","24時間","","津波、洪水","135.516798748933","34.7093288526659","津波避難ビル・水害時避難ビル"
"UR賃貸住宅（さざなみプラザ第６・３２号棟）","防災関連施設 - 津波避難ビル・水害時避難ビル","北区","国分寺1-2","","24時間","","津波、洪水","135.51646532863","34.7098764475769","津波避難ビル・水害時避難ビル"
"UR賃貸住宅（さざなみプラザ第７・２８号棟）","防災関連施設 - 津波避難ビル・水害時避難ビル","北区","長柄東2-3","","24時間","","津波、洪水","135.516880119282","34.7132872065559","津波避難ビル・水害時避難ビル"
"UR賃貸住宅（さざなみプラザ第８・３５号棟）","防災関連施設 - 津波避難ビル・水害時避難ビル","北区","長柄東2-8","","24時間","","津波、洪水","135.516740268797","34.715051302321","津波避難ビル・水害時避難ビル"
"大阪YMCAｲﾝﾀｰﾅｼｮﾅﾙｽｸｰﾙ（東側校舎）","防災関連施設 - 津波避難ビル・水害時避難ビル","北区","中津6-7-34","","8時30分～17時　体育館は24時間","指定緊急避難場所","津波、洪水","135.488853489651","34.7085641839185","津波避難ビル・水害時避難ビル"
"平成医療学園専門学校　なにわ歯科衛生専門学校","防災関連施設 - 津波避難ビル・水害時避難ビル","北区","大深町2?179","","9時～21時10分","指定緊急避難場所","津波、洪水","135.494789559067","34.7088704808642","津波避難ビル・水害時避難ビル"
"特別養護老人ホーム　淳風おおさか","防災関連施設 - 津波避難ビル・水害時避難ビル","北区","大淀南2-5-20","","7時～21時","指定緊急避難場所","津波、洪水","135.485305314856","34.700810056357","津波避難ビル・水害時避難ビル"
"１２３＋Ｎ大阪本店","防災関連施設 - 津波避難ビル・水害時避難ビル","北区","兎我野町16-11","","10時～23時","指定緊急避難場所","津波、洪水","135.5022530077","34.7007456482091","津波避難ビル・水害時避難ビル"
"国立国際美術館","防災関連施設 - 津波避難ビル・水害時避難ビル","北区","中之島4-2-55","","24時間","指定緊急避難場所","津波、洪水","135.492007460913","34.6918064766064","津波避難ビル・水害時避難ビル"
"桜宮小学校","防災関連施設 - 津波避難ビル・水害時避難ビル","都島区","東野田町1-10-19","","24時間","指定緊急避難場所","津波、洪水","135.52747799849","34.6966159997315","津波避難ビル・水害時避難ビル"
"中野小学校","防災関連施設 - 津波避難ビル・水害時避難ビル","都島区","中野町3-10-5","","24時間","指定緊急避難場所","津波、洪水","135.524216004993","34.7028519969288","津波避難ビル・水害時避難ビル"
"高倉小学校","防災関連施設 - 津波避難ビル・水害時避難ビル","都島区","高倉町3-3-10","","24時間","指定緊急避難場所","津波、洪水","135.533179998298","34.7185550027917","津波避難ビル・水害時避難ビル"
"淀川小学校","防災関連施設 - 津波避難ビル・水害時避難ビル","都島区","毛馬町3-5-39","","24時間","指定緊急避難場所","津波、洪水","135.521550003994","34.7217650000904","津波避難ビル・水害時避難ビル"
"都島小学校","防災関連施設 - 津波避難ビル・水害時避難ビル","都島区","都島本通3-10-3","","24時間","指定緊急避難場所","津波、洪水","135.528342001053","34.7072489982449","津波避難ビル・水害時避難ビル"
"内代小学校","防災関連施設 - 津波避難ビル・水害時避難ビル","都島区","内代町3-4-6","","24時間","指定緊急避難場所","津波、洪水","135.536903000798","34.7132720017262","津波避難ビル・水害時避難ビル"
"東都島小学校","防災関連施設 - 津波避難ビル・水害時避難ビル","都島区","都島本通4-24-20","","24時間","指定緊急避難場所","津波、洪水","135.534248004838","34.7081609982117","津波避難ビル・水害時避難ビル"
"大東小学校","防災関連施設 - 津波避難ビル・水害時避難ビル","都島区","毛馬町2-11-111","","24時間","指定緊急避難場所","津波、洪水","135.525251997015","34.7229600020338","津波避難ビル・水害時避難ビル"
"友渕小学校","防災関連施設 - 津波避難ビル・水害時避難ビル","都島区","友渕町1-3-123","","24時間","指定緊急避難場所","津波、洪水","135.526838997953","34.71920700304","津波避難ビル・水害時避難ビル"
"友渕（分校）小学校","防災関連施設 - 津波避難ビル・水害時避難ビル","都島区","友渕町1-3-123","","24時間","指定緊急避難場所","津波、洪水","135.52228498261","34.7166940022631","津波避難ビル・水害時避難ビル"
"高倉中学校","防災関連施設 - 津波避難ビル・水害時避難ビル","都島区","御幸町1-1-10","","24時間","指定緊急避難場所","津波、洪水","135.532628002035","34.7127919976871","津波避難ビル・水害時避難ビル"
"桜宮中学校","防災関連施設 - 津波避難ビル・水害時避難ビル","都島区","東野田町5-16-10","","24時間","指定緊急避難場所","津波、洪水","135.536596998839","34.70187700301","津波避難ビル・水害時避難ビル"
"都島中学校","防災関連施設 - 津波避難ビル・水害時避難ビル","都島区","中野町3-9-33","","24時間","指定緊急避難場所","津波、洪水","135.525696996805","34.7025649970485","津波避難ビル・水害時避難ビル"
"淀川中学校","防災関連施設 - 津波避難ビル・水害時避難ビル","都島区","毛馬町3-5-12","","24時間","指定緊急避難場所","津波、洪水","135.51933999522","34.7217300038093","津波避難ビル・水害時避難ビル"
"友渕中学校","防災関連施設 - 津波避難ビル・水害時避難ビル","都島区","友渕町1-5-151","","24時間","指定緊急避難場所","津波、洪水","135.526260002663","34.716085997705","津波避難ビル・水害時避難ビル"
"桜宮高等学校","防災関連施設 - 津波避難ビル・水害時避難ビル","都島区","毛馬町5-22-28","","24時間","指定緊急避難場所","津波、洪水","135.523652998751","34.7274790008376","津波避難ビル・水害時避難ビル"
"東高等学校","防災関連施設 - 津波避難ビル・水害時避難ビル","都島区","東野田町4-15-14","","24時間","指定緊急避難場所","津波、洪水","135.528416997778","34.6995480041451","津波避難ビル・水害時避難ビル"
"都島工業高等学校","防災関連施設 - 津波避難ビル・水害時避難ビル","都島区","善源寺町1-5-64","","24時間","指定緊急避難場所","津波、洪水","135.525218995328","34.7097270003148","津波避難ビル・水害時避難ビル"
"市営毛馬住宅6号館","防災関連施設 - 津波避難ビル・水害時避難ビル","都島区","毛馬町4-6","","24時間","指定緊急避難場所","津波、洪水","135.522071001287","34.7246790009453","津波避難ビル・水害時避難ビル"
"市営毛馬南住宅1号館","防災関連施設 - 津波避難ビル・水害時避難ビル","都島区","毛馬町1-21","","24時間","指定緊急避難場所","津波、洪水","135.519796004959","34.7197810018176","津波避難ビル・水害時避難ビル"
"市営都島中通住宅1号館","防災関連施設 - 津波避難ビル・水害時避難ビル","都島区","都島中通2-1","","24時間","指定緊急避難場所","津波、洪水","135.531656994929","34.7030459968895","津波避難ビル・水害時避難ビル"
"市営都島中通住宅2号館","防災関連施設 - 津波避難ビル・水害時避難ビル","都島区","都島中通2-9","","24時間","指定緊急避難場所","津波、洪水","135.531678004362","34.70343799879","津波避難ビル・水害時避難ビル"
"三和電装エンジニアリング㈱","防災関連施設 - 津波避難ビル・水害時避難ビル","都島区","高倉町3-10-27","","営業時間中　（8:20～17:15）","指定緊急避難場所","津波、洪水","135.531963000328","34.7195949972024","津波避難ビル・水害時避難ビル"
"都島屋内プール","防災関連施設 - 津波避難ビル・水害時避難ビル","都島区","都島本通4-12-7","","9:00～20:30","指定緊急避難場所","津波、洪水","135.532555338391","34.7073951325245","津波避難ビル・水害時避難ビル"
"UR賃貸住宅（リバーサイドしろきた）３５号棟","防災関連施設 - 津波避難ビル・水害時避難ビル","都島区","毛馬町2-11","","24時間","","津波、洪水","135.524412941974","34.7219462427281","津波避難ビル・水害時避難ビル"
"UR賃貸住宅（都島リバーシティ）１１号棟","防災関連施設 - 津波避難ビル・水害時避難ビル","都島区","大東町3-10-11","","24時間","","津波、洪水","135.525933048926","34.7281904817008","津波避難ビル・水害時避難ビル"
"太閤園","防災関連施設 - 津波避難ビル・水害時避難ビル","都島区","網島町9-10","","9:30～22:00　（12/31は除く）","指定緊急避難場所","津波、洪水","135.525944351603","34.6951157853229","津波避難ビル・水害時避難ビル"
"㈱ミルボン本社","防災関連施設 - 津波避難ビル・水害時避難ビル","都島区","善源寺町2-3-35","","平日8:35～17:30　（祝日・休業日除く）","指定緊急避難場所","津波、洪水","135.526968673956","34.7109257223101","津波避難ビル・水害時避難ビル"
"上福島小学校","防災関連施設 - 津波避難ビル・水害時避難ビル","福島区","福島7-4-33","","24時間","指定緊急避難場所","津波、洪水","135.485375888483","34.6972092189421","津波避難ビル・水害時避難ビル"
"福島小学校","防災関連施設 - 津波避難ビル・水害時避難ビル","福島区","福島4-5-6","","24時間","指定緊急避難場所","津波、洪水","135.4832427133","34.6934629184811","津波避難ビル・水害時避難ビル"
"玉川小学校","防災関連施設 - 津波避難ビル・水害時避難ビル","福島区","玉川2-13-16","","24時間","指定緊急避難場所","津波、洪水","135.481195360274","34.6918508734121","津波避難ビル・水害時避難ビル"
"下福島中学校","防災関連施設 - 津波避難ビル・水害時避難ビル","福島区","玉川1-4-11","","24時間","指定緊急避難場所","津波、洪水","135.481868118353","34.6883654099588","津波避難ビル・水害時避難ビル"
"野田小学校","防災関連施設 - 津波避難ビル・水害時避難ビル","福島区","野田5-13-22","","24時間","指定緊急避難場所","津波、洪水","135.473405436644","34.6863594380373","津波避難ビル・水害時避難ビル"
"吉野小学校","防災関連施設 - 津波避難ビル・水害時避難ビル","福島区","吉野3-10-5","","24時間","指定緊急避難場所","津波、洪水","135.473283492069","34.6899976523249","津波避難ビル・水害時避難ビル"
"野田中学校","防災関連施設 - 津波避難ビル・水害時避難ビル","福島区","吉野5-9-4","","24時間","指定緊急避難場所","津波、洪水","135.468717084568","34.6867374674056","津波避難ビル・水害時避難ビル"
"大開小学校","防災関連施設 - 津波避難ビル・水害時避難ビル","福島区","大開2-10-28","","24時間","指定緊急避難場所","津波、洪水","135.471286962631","34.6923658096389","津波避難ビル・水害時避難ビル"
"鷺洲小学校","防災関連施設 - 津波避難ビル・水害時避難ビル","福島区","鷺洲5-6-8","","24時間","指定緊急避難場所","津波、洪水","135.479226417592","34.6986690102338","津波避難ビル・水害時避難ビル"
"八阪中学校","防災関連施設 - 津波避難ビル・水害時避難ビル","福島区","鷺洲6-1-13","","24時間","指定緊急避難場所","津波、洪水","135.477693614446","34.700862717215","津波避難ビル・水害時避難ビル"
"海老江東小学校","防災関連施設 - 津波避難ビル・水害時避難ビル","福島区","海老江1-6-19","","24時間","指定緊急避難場所","津波、洪水","135.475247961252","34.6990568725357","津波避難ビル・水害時避難ビル"
"海老江西小学校","防災関連施設 - 津波避難ビル・水害時避難ビル","福島区","海老江8-1-10","","24時間","指定緊急避難場所","津波、洪水","135.469940365435","34.6973530281996","津波避難ビル・水害時避難ビル"
"西野田工科高等学校","防災関連施設 - 津波避難ビル・水害時避難ビル","福島区","大開2-17-62","","24時間","","津波、洪水","135.469679467592","34.6933289895059","津波避難ビル・水害時避難ビル"
"大阪市中央卸売市場東棟","防災関連施設 - 津波避難ビル・水害時避難ビル","福島区","野田1-1-86","","24時間","指定緊急避難場所","津波、洪水","135.477564332468","34.68437278074","津波避難ビル・水害時避難ビル"
"福島区民センター","防災関連施設 - 津波避難ビル・水害時避難ビル","福島区","吉野3-17-23","","24時間","指定緊急避難場所","津波、洪水","135.473103999903","34.6915300046209","津波避難ビル・水害時避難ビル"
"キコーナ海老江店","防災関連施設 - 津波避難ビル・水害時避難ビル","福島区","海老江3-23-3","","営業日10:00～22:30","指定緊急避難場所","津波、洪水","135.475188573794","34.702088629394","津波避難ビル・水害時避難ビル"
"㈱イシハラ","防災関連施設 - 津波避難ビル・水害時避難ビル","福島区","海老江3-21-10","","9:00～17:30　(祝日除く)","指定緊急避難場所","津波、洪水","135.472125598224","34.7004510236443","津波避難ビル・水害時避難ビル"
"㈱オールホンダビル","防災関連施設 - 津波避難ビル・水害時避難ビル","福島区","吉野2-6-2","","営業日9:00～19:00","指定緊急避難場所","津波、洪水","135.476945021379","34.6917023572248","津波避難ビル・水害時避難ビル"
"三興塗料㈱　三興ビル","防災関連施設 - 津波避難ビル・水害時避難ビル","福島区","吉野3-12-25","","営業日8:30～17:30","指定緊急避難場所","津波、洪水","135.475403435433","34.6901771172751","津波避難ビル・水害時避難ビル"
"ニシムラビル","防災関連施設 - 津波避難ビル・水害時避難ビル","福島区","吉野2-2-12","","平日9:00～17:30","指定緊急避難場所","津波、洪水","135.47596169779","34.6905118051214","津波避難ビル・水害時避難ビル"
"㈱アークビルド　本社ビル","防災関連施設 - 津波避難ビル・水害時避難ビル","福島区","吉野3-12-24","","営業日9:30～18:00","指定緊急避難場所","津波、洪水","135.475398862984","34.6902929231093","津波避難ビル・水害時避難ビル"
"東横イン大阪JR野田駅前","防災関連施設 - 津波避難ビル・水害時避難ビル","福島区","吉野2-2-2","","24時間","指定緊急避難場所","津波、洪水","135.476146766736","34.6904104150093","津波避難ビル・水害時避難ビル"
"福島区在宅サービスセンター","防災関連施設 - 津波避難ビル・水害時避難ビル","福島区","海老江6-2-22","","営業時間中（平日9:00～19:00、土曜9:00～17:30）","指定緊急避難場所","津波、洪水","135.471021531298","34.697956352301","津波避難ビル・水害時避難ビル"
"エトワール宮本","防災関連施設 - 津波避難ビル・水害時避難ビル","福島区","福島7-5-19","","24時間","指定緊急避難場所","津波、洪水","135.486130721699","34.6972846418422","津波避難ビル・水害時避難ビル"
"利州㈱","防災関連施設 - 津波避難ビル・水害時避難ビル","福島区","野田2-2-16","","24時間","","津波、洪水","135.479539326176","34.6866508734131","津波避難ビル・水害時避難ビル"
"福田ビル","防災関連施設 - 津波避難ビル・水害時避難ビル","福島区","福島2-8-22","","24時間","指定緊急避難場所","津波、洪水","135.486846706574","34.6952509226538","津波避難ビル・水害時避難ビル"
"ストークマンション野田阪神","防災関連施設 - 津波避難ビル・水害時避難ビル","福島区","海老江7-17-14","","24時間","指定緊急避難場所","津波、洪水","135.470809706556","34.6968250987454","津波避難ビル・水害時避難ビル"
"朝日放送本社　リバーデッキ","防災関連施設 - 津波避難ビル・水害時避難ビル","福島区","福島1-1-30","","24時間　但し特別な事情(ｲﾍﾞﾝﾄ開催等)がある場合を除く","指定緊急避難場所","津波、洪水","135.488723223031","34.6937410968996","津波避難ビル・水害時避難ビル"
"UR賃貸住宅(大開)１１号棟","防災関連施設 - 津波避難ビル・水害時避難ビル","福島区","大開4-1-11","","24時間","","津波、洪水","135.466047006629","34.6908305360272","津波避難ビル・水害時避難ビル"
"UR賃貸住宅（リバーサイドさぎす）５号棟","防災関連施設 - 津波避難ビル・水害時避難ビル","福島区","鷺洲6-1-5","","24時間","","津波、洪水","135.477377813761","34.7022201290494","津波避難ビル・水害時避難ビル"
"UR賃貸住宅(鷺洲第2)１号棟","防災関連施設 - 津波避難ビル・水害時避難ビル","福島区","鷺洲3-1-1","","24時間","","津波、洪水","135.480045280107","34.6969622340689","津波避難ビル・水害時避難ビル"
"UR賃貸住宅(中之島西)１号棟","防災関連施設 - 津波避難ビル・水害時避難ビル","福島区","玉川1-5-1","","24時間","","津波、洪水","135.481311026973","34.6891957350812","津波避難ビル・水害時避難ビル"
"トーワユニ㈱","防災関連施設 - 津波避難ビル・水害時避難ビル","福島区","海老江6-2-9","","9:00～18:00　(土日祝除く)","指定緊急避難場所","津波、洪水","135.47081833404","34.6977948850493","津波避難ビル・水害時避難ビル"
"ハイパイル638","防災関連施設 - 津波避難ビル・水害時避難ビル","福島区","海老江6-3-8","","24時間","指定緊急避難場所","津波、洪水","135.470913003158","34.6983863857608","津波避難ビル・水害時避難ビル"
"新生発条工業㈱内　ヴィクトワール福島","防災関連施設 - 津波避難ビル・水害時避難ビル","福島区","大開1-18-8","","24時間","指定緊急避難場所","津波、洪水","135.470662221926","34.6940256271843","津波避難ビル・水害時避難ビル"
"岡松寺（ハートフルケア）","防災関連施設 - 津波避難ビル・水害時避難ビル","福島区","福島4-8-20","","24時間","","津波、洪水","135.482952664801","34.6948969399098","津波避難ビル・水害時避難ビル"
"セントラル70","防災関連施設 - 津波避難ビル・水害時避難ビル","福島区","福島1-4-4","","7:00～23:00","指定緊急避難場所","津波、洪水","135.489730835972","34.6958082006025","津波避難ビル・水害時避難ビル"
"コミュニティプラザ大阪　（コンポ大阪ビル）","防災関連施設 - 津波避難ビル・水害時避難ビル","福島区","福島3-1-73","","9:00～17:30　(日祝除く)","","津波、洪水","135.486437682863","34.6921546893551","津波避難ビル・水害時避難ビル"
"ロイヤルシティホール野田","防災関連施設 - 津波避難ビル・水害時避難ビル","福島区","吉野1-22-8","","24時間","指定緊急避難場所","津波、洪水","135.47628986996","34.6936117278264","津波避難ビル・水害時避難ビル"
"プリプリ600","防災関連施設 - 津波避難ビル・水害時避難ビル","福島区","吉野1-20-23","","10:00～23:00","指定緊急避難場所","津波、洪水","135.477092753386","34.6936557341268","津波避難ビル・水害時避難ビル"
"大阪トヨタ自動車㈱　本社ビル","防災関連施設 - 津波避難ビル・水害時避難ビル","福島区","福島5-17-2","","9:00～22:00","指定緊急避難場所","津波、洪水","135.485151199109","34.6952035373352","津波避難ビル・水害時避難ビル"
"大阪澤久ビルディング","防災関連施設 - 津波避難ビル・水害時避難ビル","福島区","福島3-10-4","","平日9:00～17:45　(祝日指定する年末年始,　お盆休みを除く平日)","指定緊急避難場所","津波、洪水","135.484405694968","34.6933911981505","津波避難ビル・水害時避難ビル"
"凸版印刷㈱　海老江新聞工場棟","防災関連施設 - 津波避難ビル・水害時避難ビル","福島区","海老江3-22-61","","24時間","指定緊急避難場所","津波、洪水","135.474276887549","34.7007366257985","津波避難ビル・水害時避難ビル"
"野田阪神ビル（ウイステ）","防災関連施設 - 津波避難ビル・水害時避難ビル","福島区","海老江1-1-23","","24時間","","津波、洪水","135.475844997446","34.6954640049196","津波避難ビル・水害時避難ビル"
"アーバンコート福島","防災関連施設 - 津波避難ビル・水害時避難ビル","福島区","福島8-21-2","","24時間","指定緊急避難場所","津波、洪水","135.484207998145","34.6982940033216","津波避難ビル・水害時避難ビル"
"ヴェルドール野田","防災関連施設 - 津波避難ビル・水害時避難ビル","福島区","吉野5-8-6","","24時間","指定緊急避難場所","津波、洪水","135.469297302892","34.6859462638491","津波避難ビル・水害時避難ビル"
"かね清ビル","防災関連施設 - 津波避難ビル・水害時避難ビル","福島区","野田2-16-3","","24時間","指定緊急避難場所","津波、洪水","135.475655373774","34.6851585857438","津波避難ビル・水害時避難ビル"
"大八ビル","防災関連施設 - 津波避難ビル・水害時避難ビル","福島区","野田2-16-1","","24時間","指定緊急避難場所","津波、洪水","135.475901601194","34.6851386937422","津波避難ビル・水害時避難ビル"
"西九条小学校","防災関連施設 - 津波避難ビル・水害時避難ビル","此花区","西九条4-3-41","","24時間","指定緊急避難場所","津波、洪水","135.464424848527","34.682454087597","津波避難ビル・水害時避難ビル"
"四貫島小学校","防災関連施設 - 津波避難ビル・水害時避難ビル","此花区","四貫島2-16-29","","24時間","指定緊急避難場所","津波、洪水","135.454571965893","34.6849412389893","津波避難ビル・水害時避難ビル"
"梅香小学校","防災関連施設 - 津波避難ビル・水害時避難ビル","此花区","梅香3-17-29","","24時間","指定緊急避難場所","津波、洪水","135.455225389864","34.6824393716636","津波避難ビル・水害時避難ビル"
"春日出小学校","防災関連施設 - 津波避難ビル・水害時避難ビル","此花区","春日出中1-13-23","","24時間","指定緊急避難場所","津波、洪水","135.452255050075","34.6802493186177","津波避難ビル・水害時避難ビル"
"伝法小学校","防災関連施設 - 津波避難ビル・水害時避難ビル","此花区","伝法3-13-10","","24時間","指定緊急避難場所","津波、洪水","135.451451833158","34.6898050296321","津波避難ビル・水害時避難ビル"
"高見小学校","防災関連施設 - 津波避難ビル・水害時避難ビル","此花区","高見1-3-35","","24時間","指定緊急避難場所","津波、洪水","135.460301028876","34.6902565523583","津波避難ビル・水害時避難ビル"
"酉島小学校","防災関連施設 - 津波避難ビル・水害時避難ビル","此花区","酉島2-5-12","","24時間","指定緊急避難場所","津波、洪水","135.441699313607","34.6856398671868","津波避難ビル・水害時避難ビル"
"島屋小学校","防災関連施設 - 津波避難ビル・水害時避難ビル","此花区","島屋2-9-36","","24時間","指定緊急避難場所","津波、洪水","135.439366774599","34.6776619247936","津波避難ビル・水害時避難ビル"
"春日出中学校","防災関連施設 - 津波避難ビル・水害時避難ビル","此花区","春日出南1-2-8","","24時間","指定緊急避難場所","津波、洪水","135.45771803783","34.6786785378973","津波避難ビル・水害時避難ビル"
"梅香中学校","防災関連施設 - 津波避難ビル・水害時避難ビル","此花区","春日出北3-12-24","","24時間","指定緊急避難場所","津波、洪水","135.444100615319","34.6808749910631","津波避難ビル・水害時避難ビル"
"此花中学校","防災関連施設 - 津波避難ビル・水害時避難ビル","此花区","高見2-14-31","","24時間","指定緊急避難場所","津波、洪水","135.455647072354","34.6899848844895","津波避難ビル・水害時避難ビル"
"咲くやこの花中学校・高等学校","防災関連施設 - 津波避難ビル・水害時避難ビル","此花区","西九条6-1-44","","24時間","指定緊急避難場所","津波、洪水","135.46185740596","34.6802783335565","津波避難ビル・水害時避難ビル"
"もと此花総合高等学校（新館）","防災関連施設 - 津波避難ビル・水害時避難ビル","此花区","酉島2-3-16","","24時間","指定緊急避難場所","津波、洪水","135.443001792116","34.6855324981896","津波避難ビル・水害時避難ビル"
"市営桜島住宅1号館","防災関連施設 - 津波避難ビル・水害時避難ビル","此花区","桜島3-6-30","","24時間","指定緊急避難場所","津波、洪水","135.428114930354","34.6607854925429","津波避難ビル・水害時避難ビル"
"市営酉島住宅21号館","防災関連施設 - 津波避難ビル・水害時避難ビル","此花区","酉島4-1","","24時間","指定緊急避難場所","津波、洪水","135.438969995713","34.683868002404","津波避難ビル・水害時避難ビル"
"市営酉島住宅22号館","防災関連施設 - 津波避難ビル・水害時避難ビル","此花区","酉島4-2","","24時間","指定緊急避難場所","津波、洪水","135.437777130406","34.6836606679134","津波避難ビル・水害時避難ビル"
"市営酉島東住宅1号館","防災関連施設 - 津波避難ビル・水害時避難ビル","此花区","酉島1-3","","24時間","指定緊急避難場所","津波、洪水","135.445788223546","34.6852487311148","津波避難ビル・水害時避難ビル"
"市営酉島東住宅2号館","防災関連施設 - 津波避難ビル・水害時避難ビル","此花区","酉島2-1","","24時間","指定緊急避難場所","津波、洪水","135.446703610004","34.686254823032","津波避難ビル・水害時避難ビル"
"市営島屋住宅1号館","防災関連施設 - 津波避難ビル・水害時避難ビル","此花区","島屋2-8","","24時間","指定緊急避難場所","津波、洪水","135.43884767291","34.678287958029","津波避難ビル・水害時避難ビル"
"市営春日出住宅1号館","防災関連施設 - 津波避難ビル・水害時避難ビル","此花区","春日出北2-5","","24時間","指定緊急避難場所","津波、洪水","135.449270754375","34.6812984769068","津波避難ビル・水害時避難ビル"
"市営春日出住宅2号館","防災関連施設 - 津波避難ビル・水害時避難ビル","此花区","春日出北2-5","","24時間","指定緊急避難場所","津波、洪水","135.449070593234","34.681549534305","津波避難ビル・水害時避難ビル"
"市営酉島第2住宅1号棟","防災関連施設 - 津波避難ビル・水害時避難ビル","此花区","酉島3-12-20","","24時間","指定緊急避難場所","津波、洪水","135.44114300356","34.6824609989992","津波避難ビル・水害時避難ビル"
"桜島北公園","防災関連施設 - 津波避難ビル・水害時避難ビル","此花区","桜島1","","24時間","指定緊急避難場所","津波、洪水","135.435115576012","34.6632752973461","津波避難ビル・水害時避難ビル"
"住友電気工業㈱　大阪製作所　大阪事務所","防災関連施設 - 津波避難ビル・水害時避難ビル","此花区","島屋1-1-3","","24時間","指定緊急避難場所","津波、洪水","135.441600486782","34.6793511879144","津波避難ビル・水害時避難ビル"
"ケアハウス大阪安立","防災関連施設 - 津波避難ビル・水害時避難ビル","此花区","西九条3-4-61","","24時間","指定緊急避難場所","津波、洪水","135.467988097818","34.6859200019206","津波避難ビル・水害時避難ビル"
"此花区在宅サービスセンター","防災関連施設 - 津波避難ビル・水害時避難ビル","此花区","伝法3-2-27","","営業時間中（平日9:00～19:00、土曜9:00～17:30）","指定緊急避難場所","津波、洪水","135.454666165899","34.6903377297984","津波避難ビル・水害時避難ビル"
"ライフ西九条店","防災関連施設 - 津波避難ビル・水害時避難ビル","此花区","西九条6-1-132","","営業時間中","指定緊急避難場所","津波、洪水","135.464082652527","34.6831789995787","津波避難ビル・水害時避難ビル"
"ガーデン天使","防災関連施設 - 津波避難ビル・水害時避難ビル","此花区","島屋4-1-11","","24時間","指定緊急避難場所","津波、洪水","135.443717122586","34.6740515335599","津波避難ビル・水害時避難ビル"
"㈱アド・ダイセン　　関西メールセンター","防災関連施設 - 津波避難ビル・水害時避難ビル","此花区","北港1-1-1","","平日9:00～17:30","指定緊急避難場所","津波、洪水","135.430401183912","34.671957405138","津波避難ビル・水害時避難ビル"
"大阪港舞洲食品流通センター","防災関連施設 - 津波避難ビル・水害時避難ビル","此花区","北港白津1-11-52","","営業時間中　（8:00～18:00）","指定緊急避難場所","津波、洪水","135.402572203939","34.6618553933296","津波避難ビル・水害時避難ビル"
"昇陽中学校・高等学校","防災関連施設 - 津波避難ビル・水害時避難ビル","此花区","朝日1-1-9","","24時間","指定緊急避難場所","津波、洪水","135.462501759763","34.6854834106408","津波避難ビル・水害時避難ビル"
"㈱中日本冷蔵　本社センター","防災関連施設 - 津波避難ビル・水害時避難ビル","此花区","西九条1-1-20","","平日8:30～17:00　(祝日除く)","指定緊急避難場所","津波、洪水","135.470544600376","34.6824384802789","津波避難ビル・水害時避難ビル"
"㈱鴻池組　恩貴島鴻和寮","防災関連施設 - 津波避難ビル・水害時避難ビル","此花区","伝法6-1-49","","24時間","指定緊急避難場所","津波、洪水","135.448732514502","34.6847110561746","津波避難ビル・水害時避難ビル"
"ドルミ新淀川15号館","防災関連施設 - 津波避難ビル・水害時避難ビル","此花区","酉島1-2-15","","24時間","指定緊急避難場所","津波、洪水","135.447063714336","34.6853249407635","津波避難ビル・水害時避難ビル"
"酉島リバーサイドヒルなぎさ街１８号棟","防災関連施設 - 津波避難ビル・水害時避難ビル","此花区","酉島4-1-18","","24時間","","津波、洪水","135.439797821348","34.6852291792587","津波避難ビル・水害時避難ビル"
"パークシティふれあいのまち１８号棟","防災関連施設 - 津波避難ビル・水害時避難ビル","此花区","高見1-8-18","","24時間","","津波、洪水","135.461098268653","34.6938625850053","津波避難ビル・水害時避難ビル"
"高見フローラルタウン四番街５５号棟","防災関連施設 - 津波避難ビル・水害時避難ビル","此花区","高見1-4-55","","24時間","","津波、洪水","135.459626769633","34.6905164166059","津波避難ビル・水害時避難ビル"
"高見フローラルタウン五番街４５号棟","防災関連施設 - 津波避難ビル・水害時避難ビル","此花区","高見1-5-45","","24時間","","津波、洪水","135.459194751633","34.6925648295943","津波避難ビル・水害時避難ビル"
"高見フローラルタウン六番街２１号棟","防災関連施設 - 津波避難ビル・水害時避難ビル","此花区","高見1-6-21","","24時間","","津波、洪水","135.461026989156","34.691636003001","津波避難ビル・水害時避難ビル"
"高見フローラルタウン七番街１３号棟","防災関連施設 - 津波避難ビル・水害時避難ビル","此花区","高見1-7-13","","24時間","","津波、洪水","135.460504963889","34.6931091506286","津波避難ビル・水害時避難ビル"
"フローラルタウン千鳥橋","防災関連施設 - 津波避難ビル・水害時避難ビル","此花区","伝法1-3-61","","24時間","","津波、洪水","135.459656003616","34.6887469991759","津波避難ビル・水害時避難ビル"
"ルモン西九条","防災関連施設 - 津波避難ビル・水害時避難ビル","此花区","西九条2-1-32","","24時間","指定緊急避難場所","津波、洪水","135.46609299664","34.6796110029369","津波避難ビル・水害時避難ビル"
"キングマンション此花Ⅱ","防災関連施設 - 津波避難ビル・水害時避難ビル","此花区","伝法5-1-24","","月～金　9:00～17:00","指定緊急避難場所","津波、洪水","135.448454623532","34.6869868484346","津波避難ビル・水害時避難ビル"
"ルネ・パークプラザ","防災関連施設 - 津波避難ビル・水害時避難ビル","此花区","酉島6-3-4","","24時間","指定緊急避難場所","津波、洪水","135.435718995627","34.6826150030514","津波避難ビル・水害時避難ビル"
"ファミール西九条","防災関連施設 - 津波避難ビル・水害時避難ビル","此花区","西九条3-4-34","","24時間","指定緊急避難場所","津波、洪水","135.46708047076","34.6855928647743","津波避難ビル・水害時避難ビル"
"府住宅供給公社　春日出団地","防災関連施設 - 津波避難ビル・水害時避難ビル","此花区","酉島3-14-24","","24時間","指定緊急避難場所","津波","135.441328582265","34.6818096104495","津波避難ビル・水害時避難ビル"
"コーシャハイツ酉島","防災関連施設 - 津波避難ビル・水害時避難ビル","此花区","酉島4-1-1","","24時間","指定緊急避難場所","津波、洪水","135.440807954393","34.6855874963273","津波避難ビル・水害時避難ビル"
"本願寺津村別院（北御堂）","防災関連施設 - 津波避難ビル・水害時避難ビル","中央区","本町4-1-3","","24時間","指定緊急避難場所","津波、洪水","135.499846005043","34.6849800012139","津波避難ビル・水害時避難ビル"
"真宗大谷派難波別院（南御堂）","防災関連施設 - 津波避難ビル・水害時避難ビル","中央区","久太郎町4-1-11","","24時間","指定緊急避難場所","津波、洪水","135.499449004843","34.6805020031525","津波避難ビル・水害時避難ビル"
"愛日会館","防災関連施設 - 津波避難ビル・水害時避難ビル","中央区","本町4-7-11","","24時間","","津波、洪水","135.498187996631","34.6846149990839","津波避難ビル・水害時避難ビル"
"相愛中学校・高等学校","防災関連施設 - 津波避難ビル・水害時避難ビル","中央区","本町4-1-23","","24時間","","津波、洪水","135.499302995881","34.6839000006333","津波避難ビル・水害時避難ビル"
"西高等学校","防災関連施設 - 津波避難ビル・水害時避難ビル","西区","北堀江4-7-1,4-9･15","","24時間","指定緊急避難場所","津波、洪水","135.485052314442","34.6736422415895","津波避難ビル・水害時避難ビル"
"西中学校","防災関連施設 - 津波避難ビル・水害時避難ビル","西区","千代崎3-1-43","","24時間","指定緊急避難場所","津波、洪水","135.478972158209","34.6714212314405","津波避難ビル・水害時避難ビル"
"花乃井中学校","防災関連施設 - 津波避難ビル・水害時避難ビル","西区","江戸堀2-8-29","","24時間","指定緊急避難場所","津波、洪水","135.489166128692","34.6864187153855","津波避難ビル・水害時避難ビル"
"堀江中学校","防災関連施設 - 津波避難ビル・水害時避難ビル","西区","南堀江3-5-7","","24時間","指定緊急避難場所","津波、洪水","135.489502237916","34.6703524809253","津波避難ビル・水害時避難ビル"
"西船場小学校","防災関連施設 - 津波避難ビル・水害時避難ビル","西区","江戸堀1-21-28","","24時間","指定緊急避難場所","津波、洪水","135.493664069643","34.6882942741844","津波避難ビル・水害時避難ビル"
"日吉小学校","防災関連施設 - 津波避難ビル・水害時避難ビル","西区","南堀江4-9-19","","24時間","指定緊急避難場所","津波、洪水","135.484391187776","34.6708784846716","津波避難ビル・水害時避難ビル"
"九条南小学校","防災関連施設 - 津波避難ビル・水害時避難ビル","西区","九条南2-13-17","","24時間","指定緊急避難場所","津波、洪水","135.472722617432","34.6730821561879","津波避難ビル・水害時避難ビル"
"九条東小学校","防災関連施設 - 津波避難ビル・水害時避難ビル","西区","九条2-6-2","","24時間","指定緊急避難場所","津波、洪水","135.472304824948","34.6754742046957","津波避難ビル・水害時避難ビル"
"九条北小学校","防災関連施設 - 津波避難ビル・水害時避難ビル","西区","九条南4-7-38","","24時間","指定緊急避難場所","津波、洪水","135.468262507083","34.6771155844976","津波避難ビル・水害時避難ビル"
"本田小学校","防災関連施設 - 津波避難ビル・水害時避難ビル","西区","川口1-5-19","","24時間","指定緊急避難場所","津波、洪水","135.481553154265","34.6813145900123","津波避難ビル・水害時避難ビル"
"堀江小学校","防災関連施設 - 津波避難ビル・水害時避難ビル","西区","北堀江3-2-16","","24時間","指定緊急避難場所","津波、洪水","135.490310482354","34.6743347745036","津波避難ビル・水害時避難ビル"
"明治小学校","防災関連施設 - 津波避難ビル・水害時避難ビル","西区","阿波座2-3-35","","24時間","指定緊急避難場所","津波、洪水","135.491755307402","34.6805302335246","津波避難ビル・水害時避難ビル"
"境川MTビル","防災関連施設 - 津波避難ビル・水害時避難ビル","西区","境川1-1-54","","7:30～18:30（土日・祝日・年末年始除く）","指定緊急避難場所","津波、洪水","135.474317103215","34.6680596588805","津波避難ビル・水害時避難ビル"
"九条MTビル","防災関連施設 - 津波避難ビル・水害時避難ビル","西区","九条南2-34-3","","7:40～18:30（土日・祝日・年末年始除く）","指定緊急避難場所","津波、洪水","135.473120349358","34.6705077063447","津波避難ビル・水害時避難ビル"
"交通局庁舎3階外部デッキ部通路","防災関連施設 - 津波避難ビル・水害時避難ビル","西区","九条南1-12-62","","24時間","指定緊急避難場所","津波、洪水","135.474518679367","34.6693885683202","津波避難ビル・水害時避難ビル"
"大阪市立中央図書館","防災関連施設 - 津波避難ビル・水害時避難ビル","西区","北堀江4-3-2","","9:00～20:30（土・日・祝・休日は17時まで）　第1、第3木曜日9:30～17:30（ただし12月29日から1月3日は除く）","指定緊急避難場所","津波、洪水","135.486242002302","34.673841004668","津波避難ビル・水害時避難ビル"
"京セラドーム大阪・周辺デッキ","防災関連施設 - 津波避難ビル・水害時避難ビル","西区","千代崎3-2-1外","","24時間","指定緊急避難場所","津波、洪水","135.476075351149","34.6692624309176","津波避難ビル・水害時避難ビル"
"ライフ西大橋店","防災関連施設 - 津波避難ビル・水害時避難ビル","西区","新町2-9-17","","営業時間中","指定緊急避難場所","津波、洪水","135.491955019413","34.6763769678192","津波避難ビル・水害時避難ビル"
"靭パークサイドコーポ","防災関連施設 - 津波避難ビル・水害時避難ビル","西区","靭本町1-19-23","","24時間","指定緊急避難場所","津波、洪水","135.493703898028","34.6842154418486","津波避難ビル・水害時避難ビル"
"エクセランス九条公園","防災関連施設 - 津波避難ビル・水害時避難ビル","西区","千代崎3-1-48","","24時間","指定緊急避難場所","津波、洪水","135.479304830813","34.6716350664179","津波避難ビル・水害時避難ビル"
"府民共済本部ビル","防災関連施設 - 津波避難ビル・水害時避難ビル","西区","南堀江1-22-13","","9:00～17:00（土・日・祝日年末年始 除く）","指定緊急避難場所","津波、洪水","135.493303780917","34.6724688318169","津波避難ビル・水害時避難ビル"
"サンコーインダストリー㈱　新館","防災関連施設 - 津波避難ビル・水害時避難ビル","西区","立売堀1-9-17","","9:00～17:00（日・祝日・年末年始・お盆除く）","指定緊急避難場所","津波、洪水","135.494562008442","34.6793928412084","津波避難ビル・水害時避難ビル"
"忠兵衛新町ハウス・　忠兵衛公園ビル","防災関連施設 - 津波避難ビル・水害時避難ビル","西区","新町1-17-17","","24時間","指定緊急避難場所","津波、洪水","135.494331677818","34.677734615129","津波避難ビル・水害時避難ビル"
"新町忠兵衛ビル","防災関連施設 - 津波避難ビル・水害時避難ビル","西区","新町1-18-18","","24時間","指定緊急避難場所","津波、洪水","135.49447191226","34.6774282059269","津波避難ビル・水害時避難ビル"
"クレアシオンビル","防災関連施設 - 津波避難ビル・水害時避難ビル","西区","新町4-15-3","","24時間","指定緊急避難場所","津波、洪水","135.484384871421","34.6765322631256","津波避難ビル・水害時避難ビル"
"ユニアルス九条プレジオ","防災関連施設 - 津波避難ビル・水害時避難ビル","西区","九条南4-10-11","","24時間","指定緊急避難場所","津波、洪水","135.46633400412","34.677127999592","津波避難ビル・水害時避難ビル"
"グランドメゾン江戸堀西公園","防災関連施設 - 津波避難ビル・水害時避難ビル","西区","江戸堀3-8-8","","9:00～15:00（月～土）","指定緊急避難場所","津波、洪水","135.486085997646","34.6845480035811","津波避難ビル・水害時避難ビル"
"大阪木材仲買会館","防災関連施設 - 津波避難ビル・水害時避難ビル","西区","南堀江4-18-10","","9:00～17:30　（土・日・祝日・年末年始・お盆除く）","指定緊急避難場所","津波、洪水","135.484245998875","34.6725170038494","津波避難ビル・水害時避難ビル"
"アパホテル大阪肥後橋駅前","防災関連施設 - 津波避難ビル・水害時避難ビル","西区","土佐堀1-2-1","","24時間","指定緊急避難場所","津波、洪水","135.495409001414","34.6921260018855","津波避難ビル・水害時避難ビル"
"カキモトビル","防災関連施設 - 津波避難ビル・水害時避難ビル","西区","新町4-15-3","","24時間","指定緊急避難場所","津波、洪水","135.484395998038","34.6764220015884","津波避難ビル・水害時避難ビル"
"大喜多㈱","防災関連施設 - 津波避難ビル・水害時避難ビル","西区","川口3-3-17","","9:00～17:00　（土・日・祝日・年末年始・お盆・GW除く）","指定緊急避難場所","津波、洪水","135.478280997969","34.6800080014484","津波避難ビル・水害時避難ビル"
"住電商事㈱","防災関連施設 - 津波避難ビル・水害時避難ビル","西区","立売堀5-8-11","","9:00～17:15　（土・日・祝日・年末年始・お盆・GW除く）","","津波、洪水","135.485330003339","34.6782659998165","津波避難ビル・水害時避難ビル"
"イオンモール大阪ドームシティ","防災関連施設 - 津波避難ビル・水害時避難ビル","西区","千代崎3-13-1","","24時間","指定緊急避難場所","津波、洪水","135.477561946534","34.6710703687898","津波避難ビル・水害時避難ビル"
